[
  {
    "sid": "GZW13",
    "name": "广州保利香雪时光",
    "brand": "Wagas",
    "city": "广州市",
    "addr": "广州市黄埔区汇星路163号一层1025号商铺",
    "fmt": "Shopping Mall",
    "lng": 113.48558690864095,
    "lat": 23.172892674325524,
    "ads": 4203.217857142857,
    "market": null,
    "overlap": 0,
    "overlap_names": [],
    "channel": null,
    "dist": null
  },
  {
    "sid": "BJW81",
    "name": "北京北辰萃",
    "brand": "Wagas",
    "city": "北京市",
    "addr": "北京市朝阳区天辰东路5号院1号楼1层C05号",
    "fmt": "Office/BusinessPark",
    "lng": 116.39993930522118,
    "lat": 40.00073868672106,
    "ads": 2507.587916666667,
    "market": null,
    "overlap": 0,
    "overlap_names": [],
    "channel": null,
    "dist": null
  },
  {
    "sid": "SZW25",
    "name": "深圳华强北茂业天地",
    "brand": "Wagas",
    "city": "深圳市",
    "addr": "广东省深圳市福田区华强北路2009号的茂业百货深圳华强店1层F01013B号铺位",
    "fmt": "Shopping Mall",
    "lng": 114.09258439994827,
    "lat": 22.548040717148947,
    "ads": 6098.4854545454555,
    "market": null,
    "overlap": 0,
    "overlap_names": [],
    "channel": null,
    "dist": null
  },
  {
    "sid": "BJW80",
    "name": "北京方庄时代LIFE店",
    "brand": "Wagas",
    "city": "北京市",
    "addr": "北京市丰台区方庄芳星园二区6号楼1F-PW-05",
    "fmt": "Shopping Mall",
    "lng": 116.44155728800233,
    "lat": 39.86692453595118,
    "ads": 16685.585,
    "market": null,
    "overlap": 0,
    "overlap_names": [],
    "channel": null,
    "dist": null
  },
  {
    "sid": "SHW148",
    "name": "上海张江集贤",
    "brand": "Wagas",
    "city": "上海市",
    "addr": "上海市浦东新区盛夏路565弄一层28-1号",
    "fmt": "Office/BusinessPark",
    "lng": 121.63168231465102,
    "lat": 31.21194227439285,
    "ads": 7078.666923076923,
    "market": null,
    "overlap": 0,
    "overlap_names": [],
    "channel": null,
    "dist": null
  },
  {
    "sid": "BJPP2",
    "name": "北京快闪2",
    "brand": "Wagas",
    "city": "北京市",
    "addr": "北京市朝阳区半截塔路53号（外摆区）",
    "fmt": "Street-front",
    "lng": 116.52242344099253,
    "lat": 39.968968402205206,
    "ads": 0,
    "market": null,
    "overlap": 0,
    "overlap_names": [],
    "channel": null,
    "dist": null
  },
  {
    "sid": "BJPP1",
    "name": "北京快闪1",
    "brand": "Wagas",
    "city": "北京市",
    "addr": "北京市朝阳区半截塔路53号",
    "fmt": "Street-front",
    "lng": 116.52408132916997,
    "lat": 39.96946874664747,
    "ads": 0,
    "market": null,
    "overlap": 0,
    "overlap_names": [],
    "channel": null,
    "dist": null
  },
  {
    "sid": "SUZW10",
    "name": "苏州中心B1店",
    "brand": "Wagas",
    "city": "苏州市",
    "addr": "江苏省苏州市工业园区苏州中心5幢B1层（A)B1-56A号",
    "fmt": "Shopping Mall",
    "lng": 120.6822335019236,
    "lat": 31.31620799371483,
    "ads": 13482.767500000002,
    "market": null,
    "overlap": 0,
    "overlap_names": [],
    "channel": null,
    "dist": null
  },
  {
    "sid": "SZW24",
    "name": "深圳坂田天安云谷",
    "brand": "Wagas",
    "city": "深圳市",
    "addr": "深圳市龙岗区坂田街道天安云谷产业园一 期3栋2D06/2D07-1单元",
    "fmt": "Office/BusinessPark",
    "lng": 114.07434557794762,
    "lat": 22.65734670171133,
    "ads": 8221.933500000001,
    "market": null,
    "overlap": 0,
    "overlap_names": [],
    "channel": null,
    "dist": null
  },
  {
    "sid": "BJW78",
    "name": "北京甘家口百货店",
    "brand": "Wagas",
    "city": "北京市",
    "addr": "北京市海淀区三里河路17号“翠微百货股份甘家口店”一层1-126",
    "fmt": "Shopping Mall",
    "lng": 116.33978823646787,
    "lat": 39.92869358679475,
    "ads": 8332.010000000002,
    "market": null,
    "overlap": 0,
    "overlap_names": [],
    "channel": null,
    "dist": null
  },
  {
    "sid": "GZBS3",
    "name": "广州ICC",
    "brand": "Baker & Spice",
    "city": "广州市",
    "addr": "广州市天河区天河北路237、239号广州环贸中心地上第1层裙楼-102A",
    "fmt": "Office/BusinessPark",
    "lng": 113.33247933001059,
    "lat": 23.13928814612092,
    "ads": 15932.394687500006,
    "market": null,
    "overlap": 0,
    "overlap_names": [],
    "channel": null,
    "dist": null
  },
  {
    "sid": "SHW146",
    "name": "上海夏都小镇",
    "brand": "Wagas",
    "city": "上海市",
    "addr": "上海市青浦区徐泾镇谢卫路1415弄18号1层、1427号1层商铺",
    "fmt": "Shopping Mall",
    "lng": 121.29718482979665,
    "lat": 31.169872989314666,
    "ads": 17608.622968749994,
    "market": null,
    "overlap": 0,
    "overlap_names": [],
    "channel": null,
    "dist": null
  },
  {
    "sid": "BJBS35",
    "name": "北京颐堤港",
    "brand": "Baker & Spice",
    "city": "北京市",
    "addr": "北京市朝阳区酒仙桥路18号北京颐堤港-1层LG35单元",
    "fmt": "Shopping Mall",
    "lng": 116.49721525949896,
    "lat": 39.97121911271738,
    "ads": 14670.71803571429,
    "market": null,
    "overlap": 0,
    "overlap_names": [],
    "channel": null,
    "dist": null
  },
  {
    "sid": "GZW12",
    "name": "广州凯德广场云尚",
    "brand": "Wagas",
    "city": "广州市",
    "addr": "广州市白云区云城西路890号凯德广场云尚1层10B/10C号",
    "fmt": "Shopping Mall",
    "lng": 113.27464691225292,
    "lat": 23.178135466186518,
    "ads": 10676.748906249997,
    "market": null,
    "overlap": 0,
    "overlap_names": [],
    "channel": null,
    "dist": null
  },
  {
    "sid": "SHBS73",
    "name": "上海西岸中环",
    "brand": "Baker & Spice",
    "city": "上海市",
    "addr": "上海市徐汇区大木桥路900号地下1层B-B1-05号商铺",
    "fmt": "Shopping Mall",
    "lng": 121.47325998915231,
    "lat": 31.186424185593854,
    "ads": 10359.462500000001,
    "market": null,
    "overlap": 0,
    "overlap_names": [],
    "channel": null,
    "dist": null
  },
  {
    "sid": "BJW77",
    "name": "北京英蓝店",
    "brand": "Wagas",
    "city": "北京市",
    "addr": "北京市西城区金融大街7号北京英蓝国际金融中心商场地下一层 B110&B117单元",
    "fmt": "Office/BusinessPark",
    "lng": 116.36410239999249,
    "lat": 39.92194100875079,
    "ads": 11808.85254545455,
    "market": null,
    "overlap": 0,
    "overlap_names": [],
    "channel": null,
    "dist": null
  },
  {
    "sid": "SHBS72",
    "name": "上海白玉兰广场2店",
    "brand": "Baker & Spice",
    "city": "上海市",
    "addr": "上海市虹口区东长治路588号上海白玉兰广场商场 L1 楼层14A&14B商铺",
    "fmt": "Shopping Mall",
    "lng": 121.50280305489602,
    "lat": 31.24760462169293,
    "ads": 15498.595312500001,
    "market": null,
    "overlap": 0,
    "overlap_names": [],
    "channel": null,
    "dist": null
  },
  {
    "sid": "BJW76",
    "name": "北京新奥购物中心店",
    "brand": "Wagas",
    "city": "北京市",
    "addr": "北京市朝阳区湖景东路[9、11]号[2]幢[-01]层-[101]内[B1-95-1]号",
    "fmt": "Shopping Mall",
    "lng": 116.40060144718971,
    "lat": 40.00150526065981,
    "ads": 10706.221093750002,
    "market": null,
    "overlap": 0,
    "overlap_names": [],
    "channel": null,
    "dist": null
  },
  {
    "sid": "SuZW9",
    "name": "苏州狮山龙湖WA",
    "brand": "Wagas",
    "city": "苏州市",
    "addr": "江苏省苏州市虎丘区塔园路181号龙湖·苏州狮山天街 SZSSTJ-A-1F-41",
    "fmt": "Shopping Mall",
    "lng": 120.55980378980146,
    "lat": 31.291499305980757,
    "ads": 0,
    "market": null,
    "overlap": 0,
    "overlap_names": [],
    "channel": null,
    "dist": null
  },
  {
    "sid": "SHW145",
    "name": "上海博荟广场WA",
    "brand": "Wagas",
    "city": "上海市",
    "addr": "上海市黄浦区中山南一路788号1层L1-6",
    "fmt": "Shopping Mall",
    "lng": 121.47604771609156,
    "lat": 31.19357754159457,
    "ads": 15093.594843750003,
    "market": null,
    "overlap": 0,
    "overlap_names": [],
    "channel": null,
    "dist": null
  },
  {
    "sid": "NJBS5-1",
    "name": "轻遇三明治（南京金陵中环BS）",
    "brand": "Baker & Spice",
    "city": "南京市",
    "addr": "南京市王府大街29号、中山南路18号的金陵中环广场西区B1层A-B1-15号",
    "fmt": "Shopping Mall",
    "lng": 118.78887103311558,
    "lat": 32.03753196420727,
    "ads": 0,
    "market": null,
    "overlap": 0,
    "overlap_names": [],
    "channel": null,
    "dist": null
  },
  {
    "sid": "BJW75",
    "name": "北京国瑞城2店",
    "brand": "Wagas",
    "city": "北京市",
    "addr": "北京市东城区崇文门外大街18号1幢地上一层F1-32",
    "fmt": "Shopping Mall",
    "lng": 116.42639963225703,
    "lat": 39.89964379517654,
    "ads": 13732.615625000002,
    "market": null,
    "overlap": 0,
    "overlap_names": [],
    "channel": null,
    "dist": null
  },
  {
    "sid": "SHW143",
    "name": "上海港汇恒隆广场2店",
    "brand": "Wagas",
    "city": "上海市",
    "addr": "上海市徐汇区虹桥路1号上海港汇恒隆广场商场 601B/C/D/E 号铺位",
    "fmt": "Shopping Mall",
    "lng": 121.44187018127319,
    "lat": 31.193200058537318,
    "ads": 16933.61921875,
    "market": null,
    "overlap": 0,
    "overlap_names": [],
    "channel": null,
    "dist": null
  },
  {
    "sid": "HZW19",
    "name": "杭州城西银泰WA",
    "brand": "Wagas",
    "city": "杭州市",
    "addr": "杭州拱墅区380号城西银泰城1FL1002室",
    "fmt": "Shopping Mall",
    "lng": 120.112716234122,
    "lat": 30.297780878037504,
    "ads": 11748.128124999997,
    "market": null,
    "overlap": 0,
    "overlap_names": [],
    "channel": null,
    "dist": null
  },
  {
    "sid": "SHW122-1",
    "name": "轻遇三明治（上海叠纸店）",
    "brand": "Wagas",
    "city": "上海市",
    "addr": "上海市杨浦区淞沪路635号1F 105、106室",
    "fmt": "Office/BusinessPark",
    "lng": 121.51314926001149,
    "lat": 31.307926033228142,
    "ads": 0,
    "market": null,
    "overlap": 0,
    "overlap_names": [],
    "channel": null,
    "dist": null
  },
  {
    "sid": "BJBS18-1",
    "name": "轻遇三明治（北京朝阳大悦城BS）",
    "brand": "Baker & Spice",
    "city": "北京市",
    "addr": "北京市朝阳区朝阳北路99号楼1层01号G133-135",
    "fmt": "Shopping Mall",
    "lng": 116.52627628038186,
    "lat": 39.925376693811934,
    "ads": 0,
    "market": null,
    "overlap": 0,
    "overlap_names": [],
    "channel": null,
    "dist": null
  },
  {
    "sid": "BJBS10-1",
    "name": "轻遇三明治（北京祥云小镇Shine Hill）",
    "brand": "Baker & Spice",
    "city": "北京市",
    "addr": "北京市顺义区安泰大街9号院中粮祥云小镇0310-101",
    "fmt": "Shopping Mall",
    "lng": 116.54256367573927,
    "lat": 40.089868213117,
    "ads": 0,
    "market": null,
    "overlap": 0,
    "overlap_names": [],
    "channel": null,
    "dist": null
  },
  {
    "sid": "BJBS15-1",
    "name": "轻遇三明治（北京赛特奥莱）",
    "brand": "Baker & Spice",
    "city": "北京市",
    "addr": "北京市朝阳区香江北路28号一层1-007号",
    "fmt": "Shopping Mall",
    "lng": 116.5111910494991,
    "lat": 40.035528628161956,
    "ads": 0,
    "market": null,
    "overlap": 0,
    "overlap_names": [],
    "channel": null,
    "dist": null
  },
  {
    "sid": "BJBS21-1",
    "name": "轻遇三明治（北京王府中环店1）",
    "brand": "Baker & Spice",
    "city": "北京市",
    "addr": "北京市东城区王府井大街269号院1号楼B1层-132b号商铺",
    "fmt": "Shopping Mall",
    "lng": 116.41482393246883,
    "lat": 39.91371944975266,
    "ads": 0,
    "market": null,
    "overlap": 0,
    "overlap_names": [],
    "channel": null,
    "dist": null
  },
  {
    "sid": "BJW50-1",
    "name": "轻遇三明治（北京丽泽华联）",
    "brand": "Wagas",
    "city": "北京市",
    "addr": "北京市丰台区丰台北路丽泽天地F1-28号",
    "fmt": "Shopping Mall",
    "lng": 116.31150540548522,
    "lat": 39.86894135529614,
    "ads": 0,
    "market": null,
    "overlap": 0,
    "overlap_names": [],
    "channel": null,
    "dist": null
  },
  {
    "sid": "BJW20-1",
    "name": "轻遇三明治（北京西单君太店）",
    "brand": "Wagas",
    "city": "北京市",
    "addr": "北京市西城区西单北大街133号太运大厦F2，A-11号店铺",
    "fmt": "Shopping Mall",
    "lng": 116.37991135354004,
    "lat": 39.910966794377906,
    "ads": 0,
    "market": null,
    "overlap": 0,
    "overlap_names": [],
    "channel": null,
    "dist": null
  },
  {
    "sid": "BJW51-1",
    "name": "轻遇三明治（北京亦庄华联）",
    "brand": "Wagas",
    "city": "北京市",
    "addr": "北京市经济技术开发区荣华中路北京华联亦庄购物中心 F1-16",
    "fmt": "Shopping Mall",
    "lng": 116.50808784396689,
    "lat": 39.80647153646672,
    "ads": 0,
    "market": null,
    "overlap": 0,
    "overlap_names": [],
    "channel": null,
    "dist": null
  },
  {
    "sid": "BJW55-1",
    "name": "轻遇三明治（北京北苑龙湖店）",
    "brand": "Wagas",
    "city": "北京市",
    "addr": "北京市朝阳区北苑东路19号院9号楼-3至6层101内1层A馆-1F-20",
    "fmt": "Shopping Mall",
    "lng": 116.44494014204056,
    "lat": 40.04422994230703,
    "ads": 0,
    "market": null,
    "overlap": 0,
    "overlap_names": [],
    "channel": null,
    "dist": null
  },
  {
    "sid": "BJW53-1",
    "name": "轻遇三明治（北京回龙观龙街）",
    "brand": "Wagas",
    "city": "北京市",
    "addr": "北京市昌平区龙锦三街乙42号院1号楼一层1025号",
    "fmt": "Shopping Mall",
    "lng": 116.37711314509322,
    "lat": 40.08648671677072,
    "ads": 0,
    "market": null,
    "overlap": 0,
    "overlap_names": [],
    "channel": null,
    "dist": null
  },
  {
    "sid": "SHW90-1",
    "name": "轻遇三明治（上海中环百联）",
    "brand": "Wagas",
    "city": "上海市",
    "addr": "上海市普陀区真光路1288号百联中环购物广场1层G08-1F-1-B1F084室",
    "fmt": "Shopping Mall",
    "lng": 121.38933855002006,
    "lat": 31.2435409118691,
    "ads": 0,
    "market": null,
    "overlap": 0,
    "overlap_names": [],
    "channel": null,
    "dist": null
  },
  {
    "sid": "BJW54-1",
    "name": "轻遇三明治（北京西三旗店）",
    "brand": "Wagas",
    "city": "北京市",
    "addr": "北京市海淀区西三旗建材城东路33号院1号楼L120",
    "fmt": "Shopping Mall",
    "lng": 116.37184964407346,
    "lat": 40.06149526009519,
    "ads": 0,
    "market": null,
    "overlap": 0,
    "overlap_names": [],
    "channel": null,
    "dist": null
  },
  {
    "sid": "SHW110-1",
    "name": "轻遇三明治（上海宝山龙湖）",
    "brand": "Wagas",
    "city": "上海市",
    "addr": "上海市宝山区丹霞山路50弄1号宝山天街SHBCTJ-A-1F-02号房屋",
    "fmt": "Shopping Mall",
    "lng": 121.3665774873629,
    "lat": 31.357411510041825,
    "ads": 0,
    "market": null,
    "overlap": 0,
    "overlap_names": [],
    "channel": null,
    "dist": null
  },
  {
    "sid": "SHW83-1",
    "name": "轻遇三明治（上海莘庄龙之梦）",
    "brand": "Wagas",
    "city": "上海市",
    "addr": "上海市沪闵路6088号凯德龙之梦闵行01层28号",
    "fmt": "Shopping Mall",
    "lng": 121.38376096448225,
    "lat": 31.1061569424538,
    "ads": 0,
    "market": null,
    "overlap": 0,
    "overlap_names": [],
    "channel": null,
    "dist": null
  },
  {
    "sid": "SHW129-1",
    "name": "轻遇三明治（上海漫趣邻舍）",
    "brand": "Wagas",
    "city": "上海市",
    "addr": "西藏南路1699弄璟湾公寓项目1 幢 25 号 107 室、1 幢 1653 号 1 层",
    "fmt": "Street-front",
    "lng": 121.49568291958792,
    "lat": 31.197908360414452,
    "ads": 0,
    "market": null,
    "overlap": 0,
    "overlap_names": [],
    "channel": null,
    "dist": null
  },
  {
    "sid": "SHW125-1",
    "name": "轻遇三明治（上海嘉亭荟）",
    "brand": "Wagas",
    "city": "上海市",
    "addr": "上海市嘉定区墨玉南路 909 号，编号为 1122、1123-2、1124 室",
    "fmt": "Shopping Mall",
    "lng": 121.16624080602654,
    "lat": 31.285851754550222,
    "ads": 0,
    "market": null,
    "overlap": 0,
    "overlap_names": [],
    "channel": null,
    "dist": null
  },
  {
    "sid": "SHW121-1",
    "name": "轻遇三明治（上海世博绿谷）",
    "brand": "Wagas",
    "city": "上海市",
    "addr": "上海市浦东新区众冠路101号C栋一楼A03B1-1102房屋",
    "fmt": "Office/BusinessPark",
    "lng": 121.50089504518336,
    "lat": 31.185245474594673,
    "ads": 0,
    "market": null,
    "overlap": 0,
    "overlap_names": [],
    "channel": null,
    "dist": null
  },
  {
    "sid": "SHW85-1",
    "name": "轻遇三明治（上海松江漕河泾园区）",
    "brand": "Wagas",
    "city": "上海市",
    "addr": "上海市松江区新桥镇莘砖公路518号园区",
    "fmt": "Office/BusinessPark",
    "lng": 121.32135512378831,
    "lat": 31.09297448418943,
    "ads": 0,
    "market": null,
    "overlap": 0,
    "overlap_names": [],
    "channel": null,
    "dist": null
  },
  {
    "sid": "SHW86-1",
    "name": "轻遇三明治（上海田林华鑫）",
    "brand": "Wagas",
    "city": "上海市",
    "addr": "上海市徐汇区田林路142号D1栋 1楼 103室",
    "fmt": "Office/BusinessPark",
    "lng": 121.4146938377634,
    "lat": 31.167521797515935,
    "ads": 0,
    "market": null,
    "overlap": 0,
    "overlap_names": [],
    "channel": null,
    "dist": null
  },
  {
    "sid": "SHW92-1",
    "name": "轻遇三明治（上海徐汇万科中心）",
    "brand": "Wagas",
    "city": "上海市",
    "addr": "上海市徐汇区定安路55号徐汇万科中心一期一层T2-102A",
    "fmt": "Office/BusinessPark",
    "lng": 121.43877439774462,
    "lat": 31.156425982970894,
    "ads": 0,
    "market": null,
    "overlap": 0,
    "overlap_names": [],
    "channel": null,
    "dist": null
  },
  {
    "sid": "SHW54-1",
    "name": "轻遇三明治（上海虹桥龙湖天街店）",
    "brand": "Wagas",
    "city": "上海市",
    "addr": "上海闵行区申长路869号1层02（A-1F-02）单元",
    "fmt": "Shopping Mall",
    "lng": 121.31835200895354,
    "lat": 31.191176823996532,
    "ads": 0,
    "market": null,
    "overlap": 0,
    "overlap_names": [],
    "channel": null,
    "dist": null
  },
  {
    "sid": "SHW84-1",
    "name": "轻遇三明治（上海凌空soho）",
    "brand": "Wagas",
    "city": "上海市",
    "addr": "上海市长宁区金钟路968号天会商务广场6号楼103B楼",
    "fmt": "Office/BusinessPark",
    "lng": 121.35745941987481,
    "lat": 31.22001404271741,
    "ads": 0,
    "market": null,
    "overlap": 0,
    "overlap_names": [],
    "channel": null,
    "dist": null
  },
  {
    "sid": "SHW98-1",
    "name": "轻遇三明治（上海源深路）",
    "brand": "Wagas",
    "city": "上海市",
    "addr": "上海市浦东新区源深路355号、商城路1418号102-1B单元",
    "fmt": "Office/BusinessPark",
    "lng": 121.53706096010487,
    "lat": 31.233963431885442,
    "ads": 0,
    "market": null,
    "overlap": 0,
    "overlap_names": [],
    "channel": null,
    "dist": null
  },
  {
    "sid": "HZW17-1",
    "name": "轻遇三明治（杭州西溪印象城）",
    "brand": "Wagas",
    "city": "杭州市",
    "addr": "浙江省杭州市余杭区常街道五常大道1号P1-01-15号",
    "fmt": "Shopping Mall",
    "lng": 120.05526908259671,
    "lat": 30.245169059996183,
    "ads": 0,
    "market": null,
    "overlap": 0,
    "overlap_names": [],
    "channel": null,
    "dist": null
  },
  {
    "sid": "HZW15-1",
    "name": "轻遇三明治（杭州中大银泰）",
    "brand": "Wagas",
    "city": "杭州市",
    "addr": "杭州市下城区东新路822号石祥路138号商业广场L1层1024号",
    "fmt": "Shopping Mall",
    "lng": 120.18005266799227,
    "lat": 30.324827004479726,
    "ads": 0,
    "market": null,
    "overlap": 0,
    "overlap_names": [],
    "channel": null,
    "dist": null
  },
  {
    "sid": "HZW14-1",
    "name": "轻遇三明治（杭州萧山万象汇）",
    "brand": "Wagas",
    "city": "杭州市",
    "addr": "浙江省杭州市萧山区北干街道金城路927号杭州萧山万象汇L171号",
    "fmt": "Shopping Mall",
    "lng": 120.27347850524173,
    "lat": 30.179358772219082,
    "ads": 0,
    "market": null,
    "overlap": 0,
    "overlap_names": [],
    "channel": null,
    "dist": null
  },
  {
    "sid": "HZW5-1",
    "name": "轻遇三明治（杭州阿里巴巴店）",
    "brand": "Wagas",
    "city": "杭州市",
    "addr": "杭州市余杭区文一西路961号亲橙里6号楼1层6-16室",
    "fmt": "Shopping Mall",
    "lng": 120.0350707031791,
    "lat": 30.279045109573577,
    "ads": 0,
    "market": null,
    "overlap": 0,
    "overlap_names": [],
    "channel": null,
    "dist": null
  },
  {
    "sid": "HZW7-1",
    "name": "轻遇三明治（杭州远洋乐堤港店）",
    "brand": "Wagas",
    "city": "杭州市",
    "addr": "杭州市拱墅区丽水路远洋乐堤港A区一层A176-A178 ",
    "fmt": "Shopping Mall",
    "lng": 120.14699254352635,
    "lat": 30.302371179396264,
    "ads": 0,
    "market": null,
    "overlap": 0,
    "overlap_names": [],
    "channel": null,
    "dist": null
  },
  {
    "sid": "HZW8-1",
    "name": "轻遇三明治（杭州龙湖西溪天街店）",
    "brand": "Wagas",
    "city": "杭州市",
    "addr": "杭州市西湖区蒋村街道余杭塘路1001号西溪天街A幢1楼24号",
    "fmt": "Shopping Mall",
    "lng": 120.07384760630171,
    "lat": 30.289319582108664,
    "ads": 0,
    "market": null,
    "overlap": 0,
    "overlap_names": [],
    "channel": null,
    "dist": null
  },
  {
    "sid": "HZW3-1",
    "name": "轻遇三明治（杭州来福士）",
    "brand": "Wagas",
    "city": "杭州市",
    "addr": "杭州市江干区新业路228号杭州来福士中心L1层29b&30号",
    "fmt": "Shopping Mall",
    "lng": 120.21861651495455,
    "lat": 30.246321930863484,
    "ads": 0,
    "market": null,
    "overlap": 0,
    "overlap_names": [],
    "channel": null,
    "dist": null
  },
  {
    "sid": "HZW13-1",
    "name": "轻遇三明治（杭州欧美金融城）",
    "brand": "Wagas",
    "city": "杭州市",
    "addr": "浙江省杭州市余杭区文一西路与水城北路交汇处东北欧美金融城84号楼1层C103、C102号商铺",
    "fmt": "Shopping Mall",
    "lng": 120.00637041123609,
    "lat": 30.27767380021038,
    "ads": 0,
    "market": null,
    "overlap": 0,
    "overlap_names": [],
    "channel": null,
    "dist": null
  },
  {
    "sid": "HZW6-1",
    "name": "轻遇三明治（杭州黄龙万科店）",
    "brand": "Wagas",
    "city": "杭州市",
    "addr": "杭州市西湖区学院路77号黄龙国际中心商场一层101号单元 ",
    "fmt": "Shopping Mall",
    "lng": 120.13289715784329,
    "lat": 30.273121181152288,
    "ads": 0,
    "market": null,
    "overlap": 0,
    "overlap_names": [],
    "channel": null,
    "dist": null
  },
  {
    "sid": "HZW18-1",
    "name": "轻遇三明治（杭州奥体印象城）",
    "brand": "Wagas",
    "city": "杭州市",
    "addr": "浙江省杭州市萧山区钱江世纪城金鸡路与扬帆路交叉口第MA栋第L1层的第L1-23;L1-K09号",
    "fmt": "Shopping Mall",
    "lng": 120.25971964357083,
    "lat": 30.23130324142051,
    "ads": 0,
    "market": null,
    "overlap": 0,
    "overlap_names": [],
    "channel": null,
    "dist": null
  },
  {
    "sid": "HZW10-1",
    "name": "轻遇三明治（杭州滨江银泰）",
    "brand": "Wagas",
    "city": "杭州市",
    "addr": "浙江省杭州市滨江区滨和路598号1号楼A-132",
    "fmt": "Shopping Mall",
    "lng": 120.22623759655099,
    "lat": 30.1984752299647,
    "ads": 0,
    "market": null,
    "overlap": 0,
    "overlap_names": [],
    "channel": null,
    "dist": null
  },
  {
    "sid": "BJW3-1",
    "name": "轻遇三明治（北京来福士）",
    "brand": "Wagas",
    "city": "北京市",
    "addr": "北京市东城区东直门南大街1号01-10室来福士1层",
    "fmt": "Shopping Mall",
    "lng": 116.43883053065106,
    "lat": 39.94157440168767,
    "ads": 0,
    "market": null,
    "overlap": 0,
    "overlap_names": [],
    "channel": null,
    "dist": null
  },
  {
    "sid": "BJW63-1",
    "name": "轻遇三明治（北京汉威）",
    "brand": "Wagas",
    "city": "北京市",
    "addr": "北京市丰台区南四环西路186号汉威广场二区9号楼1层02-03号",
    "fmt": "Office/BusinessPark",
    "lng": 116.30179086876709,
    "lat": 39.82685405014482,
    "ads": 0,
    "market": null,
    "overlap": 0,
    "overlap_names": [],
    "channel": null,
    "dist": null
  },
  {
    "sid": "BJW59-1",
    "name": "轻遇三明治（北京长安商场）",
    "brand": "Wagas",
    "city": "北京市",
    "addr": "北京市西城区复兴门外大街15号1幢F1-124",
    "fmt": "Shopping Mall",
    "lng": 116.35149231382063,
    "lat": 39.9092856735095,
    "ads": 0,
    "market": null,
    "overlap": 0,
    "overlap_names": [],
    "channel": null,
    "dist": null
  },
  {
    "sid": "BJW56-1",
    "name": "轻遇三明治（北京望京万象汇）",
    "brand": "Wagas",
    "city": "北京市",
    "addr": "北京市朝阳区广顺北大街16号院3号楼望京华彩商业中心 一 层A108-1/A108号",
    "fmt": "Shopping Mall",
    "lng": 116.47530864894792,
    "lat": 40.012103291490455,
    "ads": 0,
    "market": null,
    "overlap": 0,
    "overlap_names": [],
    "channel": null,
    "dist": null
  },
  {
    "sid": "BJW52-1",
    "name": "轻遇三明治（北京新光大）",
    "brand": "Wagas",
    "city": "北京市",
    "addr": "北京市通州区滨惠北一街新光大中心IV-02号1层106室",
    "fmt": "Shopping Mall",
    "lng": 116.66648089273525,
    "lat": 39.91744773407266,
    "ads": 0,
    "market": null,
    "overlap": 0,
    "overlap_names": [],
    "channel": null,
    "dist": null
  },
  {
    "sid": "BJW48-1",
    "name": "轻遇三明治（北京元中心）",
    "brand": "Wagas",
    "city": "北京市",
    "addr": "北京市海淀区西二旗中路29号中关村移动智能服务创新园6号楼 一层101室",
    "fmt": "Office/BusinessPark",
    "lng": 116.32239363854747,
    "lat": 40.051106924366195,
    "ads": 0,
    "market": null,
    "overlap": 0,
    "overlap_names": [],
    "channel": null,
    "dist": null
  },
  {
    "sid": "BJW45-1",
    "name": "轻遇三明治（北京信创园）",
    "brand": "Wagas",
    "city": "北京市",
    "addr": "北京经济技术开发区科谷一街8号院3号楼一层102-2",
    "fmt": "Office/BusinessPark",
    "lng": 116.58456837470754,
    "lat": 39.78757204238054,
    "ads": 0,
    "market": null,
    "overlap": 0,
    "overlap_names": [],
    "channel": null,
    "dist": null
  },
  {
    "sid": "BJW16-1",
    "name": "轻遇三明治（北京十里堡万科时代店）",
    "brand": "Wagas",
    "city": "北京市",
    "addr": "北京市朝阳区十里堡甲3号院1号楼1层40-42室",
    "fmt": "Shopping Mall",
    "lng": 116.50960492009547,
    "lat": 39.916069287437004,
    "ads": 0,
    "market": null,
    "overlap": 0,
    "overlap_names": [],
    "channel": null,
    "dist": null
  },
  {
    "sid": "BJW42-1",
    "name": "轻遇三明治（北京丽泽平安）",
    "brand": "Wagas",
    "city": "北京市",
    "addr": "北京市丰台区金泽西路2号院1号楼A1-05/A1-06/A1-07",
    "fmt": "Office/BusinessPark",
    "lng": 116.33300621355923,
    "lat": 39.86778094233124,
    "ads": 0,
    "market": null,
    "overlap": 0,
    "overlap_names": [],
    "channel": null,
    "dist": null
  },
  {
    "sid": "BJW11-1",
    "name": "轻遇三明治（北京环球贸易中心店）",
    "brand": "Wagas",
    "city": "北京市",
    "addr": "北京市东城区北三环东路36号3号楼1层09单元",
    "fmt": "Office/BusinessPark",
    "lng": 116.41681205157597,
    "lat": 39.967888030685685,
    "ads": 0,
    "market": null,
    "overlap": 0,
    "overlap_names": [],
    "channel": null,
    "dist": null
  },
  {
    "sid": "BJW9-1",
    "name": "轻遇三明治（北京中粮广场）",
    "brand": "Wagas",
    "city": "北京市",
    "addr": "北京市东城区建国门内大街8号北京中粮广场C座G133-135",
    "fmt": "Office/BusinessPark",
    "lng": 116.43628455725164,
    "lat": 39.90867328260878,
    "ads": 0,
    "market": null,
    "overlap": 0,
    "overlap_names": [],
    "channel": null,
    "dist": null
  },
  {
    "sid": "SHBS56-1",
    "name": "轻遇三明治（上海EKA天物空间）",
    "brand": "Baker & Spice",
    "city": "上海市",
    "addr": "上海市浦东新区金桥路 527-535 号内 13 幢第 470-1F 101、102、103、109、110、111 单元",
    "fmt": "Street-front",
    "lng": 121.58118164524957,
    "lat": 31.261158831735255,
    "ads": 0,
    "market": null,
    "overlap": 0,
    "overlap_names": [],
    "channel": null,
    "dist": null
  },
  {
    "sid": "SHBS55-1",
    "name": "轻遇三明治（七宝领展广场）",
    "brand": "Baker & Spice",
    "city": "上海市",
    "addr": "上海市闵行区漕宝路3366号1层L109D室",
    "fmt": "Shopping Mall",
    "lng": 121.35469001520578,
    "lat": 31.153221157340077,
    "ads": 0,
    "market": null,
    "overlap": 0,
    "overlap_names": [],
    "channel": null,
    "dist": null
  },
  {
    "sid": "SHBS53-1",
    "name": "轻遇三明治（上海青浦奥莱）",
    "brand": "Baker & Spice",
    "city": "上海市",
    "addr": "上海市沪青平公路2888号A5-102室",
    "fmt": "Shopping Mall",
    "lng": 121.23241881820911,
    "lat": 31.153221187749725,
    "ads": 0,
    "market": null,
    "overlap": 0,
    "overlap_names": [],
    "channel": null,
    "dist": null
  },
  {
    "sid": "SHBS49-1",
    "name": "轻遇三明治（上海蟠龙天地BS）",
    "brand": "Baker & Spice",
    "city": "上海市",
    "addr": "上海市青浦区蟠龙路蟠龙天地BS117",
    "fmt": "Shopping Mall",
    "lng": 121.27991582321772,
    "lat": 31.187844301939634,
    "ads": 0,
    "market": null,
    "overlap": 0,
    "overlap_names": [],
    "channel": null,
    "dist": null
  },
  {
    "sid": "SHBS43-1",
    "name": "轻遇三明治（上海近铁城市广场）",
    "brand": "Baker & Spice",
    "city": "上海市",
    "addr": "上海市普陀区真北路818号近铁城市广场北区一楼N-F1-20商铺",
    "fmt": "Shopping Mall",
    "lng": 121.38693226143127,
    "lat": 31.231155407155104,
    "ads": 0,
    "market": null,
    "overlap": 0,
    "overlap_names": [],
    "channel": null,
    "dist": null
  },
  {
    "sid": "SHBS40-1",
    "name": "轻遇三明治（上海西岸凤巢）",
    "brand": "Baker & Spice",
    "city": "上海市",
    "addr": "上海市徐汇区云锦路683 号1层第01-019号商铺",
    "fmt": "Shopping Mall",
    "lng": 121.46411508488258,
    "lat": 31.16201957594396,
    "ads": 0,
    "market": null,
    "overlap": 0,
    "overlap_names": [],
    "channel": null,
    "dist": null
  },
  {
    "sid": "SHBS41-1",
    "name": "轻遇三明治（上海大宁久光）",
    "brand": "Baker & Spice",
    "city": "上海市",
    "addr": "上海市静安区共和新路 2188 号B1 层 MB136-2、MB136-3 室",
    "fmt": "Shopping Mall",
    "lng": 121.45541202969207,
    "lat": 31.27423758643456,
    "ads": 0,
    "market": null,
    "overlap": 0,
    "overlap_names": [],
    "channel": null,
    "dist": null
  },
  {
    "sid": "SHBS38-1",
    "name": "轻遇三明治（上海漕河泾印象城）",
    "brand": "Baker & Spice",
    "city": "上海市",
    "addr": "上海市徐汇区古美路1520号L1层07+08号",
    "fmt": "Shopping Mall",
    "lng": 121.40437865370396,
    "lat": 31.159930975511408,
    "ads": 0,
    "market": null,
    "overlap": 0,
    "overlap_names": [],
    "channel": null,
    "dist": null
  },
  {
    "sid": "SHBS15-1",
    "name": "轻遇三明治（上海凯德晶萃店）",
    "brand": "Baker & Spice",
    "city": "上海市",
    "addr": "上海市黄浦区徐家汇路268号1-20号",
    "fmt": "Shopping Mall",
    "lng": 121.48195067419432,
    "lat": 31.208284295641942,
    "ads": 0,
    "market": null,
    "overlap": 0,
    "overlap_names": [],
    "channel": null,
    "dist": null
  },
  {
    "sid": "SHBS11-1",
    "name": "轻遇三明治（上海仲盛世界商城）",
    "brand": "Baker & Spice",
    "city": "上海市",
    "addr": "上海市闵行区都市路5001号仲盛世界商城地上1层110A单元",
    "fmt": "Shopping Mall",
    "lng": 121.39193540240645,
    "lat": 31.105128856101953,
    "ads": 0,
    "market": null,
    "overlap": 0,
    "overlap_names": [],
    "channel": null,
    "dist": null
  },
  {
    "sid": "SHBS46-1",
    "name": "轻遇三明治（上海万科天空之城）",
    "brand": "Baker & Spice",
    "city": "上海市",
    "addr": "上海市青浦区崧泽大道2229弄66号L1-66/67室",
    "fmt": "Shopping Mall",
    "lng": 121.25820065238773,
    "lat": 31.17496384343476,
    "ads": 0,
    "market": null,
    "overlap": 0,
    "overlap_names": [],
    "channel": null,
    "dist": null
  },
  {
    "sid": "BJBS19-1",
    "name": "轻遇三明治（北京京西大悦城）",
    "brand": "Baker & Spice",
    "city": "北京市",
    "addr": "北京市石景山区阜石路173号院1号楼B1-34 号",
    "fmt": "Shopping Mall",
    "lng": 116.18921199483033,
    "lat": 39.92669025538458,
    "ads": 0,
    "market": null,
    "overlap": 0,
    "overlap_names": [],
    "channel": null,
    "dist": null
  },
  {
    "sid": "BJBS23-1",
    "name": "轻遇三明治（北京西北旺）",
    "brand": "Baker & Spice",
    "city": "北京市",
    "addr": "北京市海淀区德政路16号院西北旺万象汇1层L132号",
    "fmt": "Shopping Mall",
    "lng": 116.26485400068634,
    "lat": 40.0506654206847,
    "ads": 0,
    "market": null,
    "overlap": 0,
    "overlap_names": [],
    "channel": null,
    "dist": null
  },
  {
    "sid": "BJBS22-1",
    "name": "轻遇三明治（北京长楹天街）",
    "brand": "Baker & Spice",
    "city": "北京市",
    "addr": "北京市朝阳区常通路2号院1号楼B栋-1F-36、37号",
    "fmt": "Shopping Mall",
    "lng": 116.60710086252274,
    "lat": 39.92598672617211,
    "ads": 0,
    "market": null,
    "overlap": 0,
    "overlap_names": [],
    "channel": null,
    "dist": null
  },
  {
    "sid": "BJBS20-1",
    "name": "轻遇三明治（北京北辰荟）",
    "brand": "Baker & Spice",
    "city": "北京市",
    "addr": "北京市朝阳区北辰西路6号院1号楼一层L118-1",
    "fmt": "Shopping Mall",
    "lng": 116.38707223545761,
    "lat": 40.00566090983661,
    "ads": 0,
    "market": null,
    "overlap": 0,
    "overlap_names": [],
    "channel": null,
    "dist": null
  },
  {
    "sid": "BJBS14-1",
    "name": "轻遇三明治（北京望京凯德）",
    "brand": "Baker & Spice",
    "city": "北京市",
    "addr": "北京市朝阳区广顺北大街33号院215号楼1层38/39号",
    "fmt": "Shopping Mall",
    "lng": 116.47475122321708,
    "lat": 39.99428696745286,
    "ads": 0,
    "market": null,
    "overlap": 0,
    "overlap_names": [],
    "channel": null,
    "dist": null
  },
  {
    "sid": "BJBS12-1",
    "name": "轻遇三明治（北京金地店）",
    "brand": "Baker & Spice",
    "city": "北京市",
    "addr": "北京市朝阳区建国路91号金地广场B座一层L108-109",
    "fmt": "Shopping Mall",
    "lng": 116.48071100353307,
    "lat": 39.91042561354416,
    "ads": 0,
    "market": null,
    "overlap": 0,
    "overlap_names": [],
    "channel": null,
    "dist": null
  },
  {
    "sid": "BJBS11-1",
    "name": "轻遇三明治（北京悠唐）",
    "brand": "Baker & Spice",
    "city": "北京市",
    "addr": "北京市朝阳区三丰北里2号悠唐购物中心1层 F1-001A/F1-036A/F2-052",
    "fmt": "Shopping Mall",
    "lng": 116.44447829916848,
    "lat": 39.92250342732261,
    "ads": 0,
    "market": null,
    "overlap": 0,
    "overlap_names": [],
    "channel": null,
    "dist": null
  },
  {
    "sid": "SHW142",
    "name": "上海虹桥国际机场T2 WA",
    "brand": "Wagas",
    "city": "上海市",
    "addr": "上海市申达一路1号虹桥机场2号航站楼出发禁区北侧D40-10区域",
    "fmt": "Transportation center",
    "lng": 121.3341096989163,
    "lat": 31.194482146803086,
    "ads": 17875.44921875,
    "market": null,
    "overlap": 0,
    "overlap_names": [],
    "channel": null,
    "dist": null
  },
  {
    "sid": "NJBS5",
    "name": "南京金陵中环BS",
    "brand": "Baker & Spice",
    "city": "南京市",
    "addr": "南京市王府大街29号、中山南路18号的金陵中环广场西区B1层A-B1-15号",
    "fmt": "Shopping Mall",
    "lng": 118.78887103311558,
    "lat": 32.03753196420727,
    "ads": 15390.851562499996,
    "market": null,
    "overlap": 0,
    "overlap_names": [],
    "channel": null,
    "dist": null
  },
  {
    "sid": "SHW141",
    "name": "上海徐家汇中心",
    "brand": "Wagas",
    "city": "上海市",
    "addr": "上海市徐汇区虹桥路99号上海徐家汇中心商场四层(L4)408 室",
    "fmt": "Shopping Mall",
    "lng": 121.43916989907763,
    "lat": 31.192347635725575,
    "ads": 3756.4165625,
    "market": null,
    "overlap": 0,
    "overlap_names": [],
    "channel": null,
    "dist": null
  },
  {
    "sid": "SHW47-1",
    "name": "轻遇三明治（上海静安大融城店）",
    "brand": "Wagas",
    "city": "上海市",
    "addr": "上海市静安区沪太路1111弄1号楼静安大融城购物中心一层L101-1商铺",
    "fmt": "Shopping Mall",
    "lng": 121.4319584718122,
    "lat": 31.278013766541797,
    "ads": 0,
    "market": null,
    "overlap": 0,
    "overlap_names": [],
    "channel": null,
    "dist": null
  },
  {
    "sid": "SHW35-1",
    "name": "轻遇三明治（上海江苏路）",
    "brand": "Wagas",
    "city": "上海市",
    "addr": "上海市长宁区江苏路458号舜元大厦106单元",
    "fmt": "Office/BusinessPark",
    "lng": 121.43579951814556,
    "lat": 31.216685944701947,
    "ads": 0,
    "market": null,
    "overlap": 0,
    "overlap_names": [],
    "channel": null,
    "dist": null
  },
  {
    "sid": "SHW66-1",
    "name": "轻遇三明治（上海活力城店）",
    "brand": "Wagas",
    "city": "上海市",
    "addr": "上海市浦东新区北蔡镇沪南路2229号L1层41-02室",
    "fmt": "Shopping Mall",
    "lng": 121.56958881629923,
    "lat": 31.153671104848165,
    "ads": 0,
    "market": null,
    "overlap": 0,
    "overlap_names": [],
    "channel": null,
    "dist": null
  },
  {
    "sid": "SHW71-1",
    "name": "轻遇三明治（上海Plus乐坊店）",
    "brand": "Wagas",
    "city": "上海市",
    "addr": "上海市浦东新区芳甸路1372号大唐国际广场1-05号商铺",
    "fmt": "Shopping Mall",
    "lng": 121.56728257596859,
    "lat": 31.205128415356196,
    "ads": 0,
    "market": null,
    "overlap": 0,
    "overlap_names": [],
    "channel": null,
    "dist": null
  },
  {
    "sid": "SHW7-1",
    "name": "轻遇三明治（上海浦东大拇指广场）",
    "brand": "Wagas",
    "city": "上海市",
    "addr": "上海市浦东新区芳甸路199弄证大大拇指广场31号",
    "fmt": "Shopping Mall",
    "lng": 121.56406682091296,
    "lat": 31.224807895618124,
    "ads": 0,
    "market": null,
    "overlap": 0,
    "overlap_names": [],
    "channel": null,
    "dist": null
  },
  {
    "sid": "SHW80-1",
    "name": "轻遇三明治（上海陆家嘴投资大厦店）",
    "brand": "Wagas",
    "city": "上海市",
    "addr": "上海市浦东新区浦电路366号第一层103A和103B",
    "fmt": "Office/BusinessPark",
    "lng": 121.53475909632758,
    "lat": 31.21978787643405,
    "ads": 0,
    "market": null,
    "overlap": 0,
    "overlap_names": [],
    "channel": null,
    "dist": null
  },
  {
    "sid": "SHW89-1",
    "name": "轻遇三明治（上海东方广场）",
    "brand": "Wagas",
    "city": "上海市",
    "addr": "上海市浦东新区东育路636号1层",
    "fmt": "Office/BusinessPark",
    "lng": 121.48785530666171,
    "lat": 31.148886529962247,
    "ads": 0,
    "market": null,
    "overlap": 0,
    "overlap_names": [],
    "channel": null,
    "dist": null
  },
  {
    "sid": "SHW81-1",
    "name": "轻遇三明治（上海前滩企业天地店）",
    "brand": "Wagas",
    "city": "上海市",
    "addr": "上海自由贸易试验区东育路255弄2号1层101单元",
    "fmt": "Office/BusinessPark",
    "lng": 121.48602622592273,
    "lat": 31.155716383110445,
    "ads": 0,
    "market": null,
    "overlap": 0,
    "overlap_names": [],
    "channel": null,
    "dist": null
  },
  {
    "sid": "SHW87-1",
    "name": "轻遇三明治（上海旭辉环创中心）",
    "brand": "Wagas",
    "city": "上海市",
    "addr": "杨浦区周家嘴路3680号环创中心1楼24-25室",
    "fmt": "Shopping Mall",
    "lng": 121.5468661045524,
    "lat": 31.27631093661676,
    "ads": 0,
    "market": null,
    "overlap": 0,
    "overlap_names": [],
    "channel": null,
    "dist": null
  },
  {
    "sid": "SHW18-1",
    "name": "轻遇三明治（上海缤谷广场）",
    "brand": "Wagas",
    "city": "上海市",
    "addr": "上海市长宁区天山路341号缤谷广场西座105室",
    "fmt": "Shopping Mall",
    "lng": 121.39141849824522,
    "lat": 31.212609070618523,
    "ads": 0,
    "market": null,
    "overlap": 0,
    "overlap_names": [],
    "channel": null,
    "dist": null
  },
  {
    "sid": "SHW106-1",
    "name": "轻遇三明治（上海虹桥国际商务花园）",
    "brand": "Wagas",
    "city": "上海市",
    "addr": "上海市长宁区临虹路168弄南区102-3室",
    "fmt": "Office/BusinessPark",
    "lng": 121.3565845190398,
    "lat": 31.22953299817801,
    "ads": 0,
    "market": null,
    "overlap": 0,
    "overlap_names": [],
    "channel": null,
    "dist": null
  },
  {
    "sid": "SHW102-1",
    "name": "轻遇三明治（上海长阳创谷）",
    "brand": "Wagas",
    "city": "上海市",
    "addr": "上海市杨浦区长阳路1687号西1120幢104室",
    "fmt": "Office/BusinessPark",
    "lng": 121.53970766885776,
    "lat": 31.268685980491803,
    "ads": 0,
    "market": null,
    "overlap": 0,
    "overlap_names": [],
    "channel": null,
    "dist": null
  },
  {
    "sid": "BJW17-1",
    "name": "轻遇三明治（北京枫蓝国际店）",
    "brand": "Wagas",
    "city": "北京市",
    "addr": "北京海淀枫蓝国际一层101-1至5号商铺",
    "fmt": "Shopping Mall",
    "lng": 116.36295274240804,
    "lat": 39.95429508542265,
    "ads": 0,
    "market": null,
    "overlap": 0,
    "overlap_names": [],
    "channel": null,
    "dist": null
  },
  {
    "sid": "BJW40-1",
    "name": "轻遇三明治（北京万柳店）",
    "brand": "Wagas",
    "city": "北京市",
    "addr": "北京市海淀区巴沟路2号1幢万柳华联一层F1-42",
    "fmt": "Shopping Mall",
    "lng": 116.30136989787296,
    "lat": 39.974993499217426,
    "ads": 0,
    "market": null,
    "overlap": 0,
    "overlap_names": [],
    "channel": null,
    "dist": null
  },
  {
    "sid": "BJW24-1",
    "name": "轻遇三明治（北京东方广场店）",
    "brand": "Wagas",
    "city": "北京市",
    "addr": "北京市东长安街1号东方广场东方新天地PW2(16-17)号店铺",
    "fmt": "Shopping Mall",
    "lng": 116.42088806732639,
    "lat": 39.91081791748711,
    "ads": 0,
    "market": null,
    "overlap": 0,
    "overlap_names": [],
    "channel": null,
    "dist": null
  },
  {
    "sid": "SHW140",
    "name": "上海高岛屋",
    "brand": "Wagas",
    "city": "上海市",
    "addr": "上海市长宁区虹桥路1438号1幢一（1）层01-01号",
    "fmt": "Shopping Mall",
    "lng": 121.40788691972463,
    "lat": 31.195505074918007,
    "ads": 16784.312500000004,
    "market": null,
    "overlap": 0,
    "overlap_names": [],
    "channel": null,
    "dist": null
  },
  {
    "sid": "SHW101-1",
    "name": "轻遇三明治（上海宝山新业坊店)",
    "brand": "Wagas",
    "city": "上海市",
    "addr": "上海市宝山区逸仙路1328号6号楼108A室",
    "fmt": "Office/BusinessPark",
    "lng": 121.48844186662127,
    "lat": 31.316135002211812,
    "ads": 0,
    "market": null,
    "overlap": 0,
    "overlap_names": [],
    "channel": null,
    "dist": null
  },
  {
    "sid": "SHW57-1",
    "name": "轻遇三明治（上海大宁音乐广场店)",
    "brand": "Wagas",
    "city": "上海市",
    "addr": "上海市静安区万荣路777号大宁音乐广场A座102室",
    "fmt": "Office/BusinessPark",
    "lng": 121.44886264755968,
    "lat": 31.27844906602709,
    "ads": 0,
    "market": null,
    "overlap": 0,
    "overlap_names": [],
    "channel": null,
    "dist": null
  },
  {
    "sid": "BJW34-1",
    "name": "轻遇三明治（北京新中关店WA店)",
    "brand": "Wagas",
    "city": "北京市",
    "addr": "北京市海淀区中关村大街19号新中关大厦一层L120",
    "fmt": "Shopping Mall",
    "lng": 116.3215195736661,
    "lat": 39.97960101874379,
    "ads": 0,
    "market": null,
    "overlap": 0,
    "overlap_names": [],
    "channel": null,
    "dist": null
  },
  {
    "sid": "BJW62-1",
    "name": "轻遇三明治（北京城乡购物中心店)",
    "brand": "Wagas",
    "city": "北京市",
    "addr": "北京市海淀区复兴路甲23号",
    "fmt": "Shopping Mall",
    "lng": 116.31182240044897,
    "lat": 39.911199898875076,
    "ads": 0,
    "market": null,
    "overlap": 0,
    "overlap_names": [],
    "channel": null,
    "dist": null
  },
  {
    "sid": "BJW41-1",
    "name": "轻遇三明治（北京新世界店)",
    "brand": "Wagas",
    "city": "北京市",
    "addr": "北京市朝阳区建国路93号北京新世界彩旋百货有限公司1层L01F117",
    "fmt": "Shopping Mall",
    "lng": 116.47826555752557,
    "lat": 39.910806261715265,
    "ads": 0,
    "market": null,
    "overlap": 0,
    "overlap_names": [],
    "channel": null,
    "dist": null
  },
  {
    "sid": "SHLK8-1",
    "name": "轻遇三明治（上海瑞虹太阳宫店)",
    "brand": "Lokal",
    "city": "上海市",
    "addr": "上海市虹口区瑞虹路181号L1-14单元",
    "fmt": "Shopping Mall",
    "lng": 121.50456426758494,
    "lat": 31.26049251886249,
    "ads": 0,
    "market": null,
    "overlap": 0,
    "overlap_names": [],
    "channel": null,
    "dist": null
  },
  {
    "sid": "SHW51-1",
    "name": "轻遇三明治（上海品尊国际店)",
    "brand": "Wagas",
    "city": "上海市",
    "addr": "上海市普陀区铜川路58弄23、24号A区一层商铺 ",
    "fmt": "Office/BusinessPark",
    "lng": 121.42462182359196,
    "lat": 31.255088958642418,
    "ads": 0,
    "market": null,
    "overlap": 0,
    "overlap_names": [],
    "channel": null,
    "dist": null
  },
  {
    "sid": "SHW93-1",
    "name": "轻遇三明治（上海维璟印象城店)",
    "brand": "Wagas",
    "city": "上海市",
    "addr": "上海市闵行区七莘路1507号1层01-024-X1号商铺",
    "fmt": "Shopping Mall",
    "lng": 121.3680559421879,
    "lat": 31.12953983087751,
    "ads": 0,
    "market": null,
    "overlap": 0,
    "overlap_names": [],
    "channel": null,
    "dist": null
  },
  {
    "sid": "BJW43-1",
    "name": "轻遇三明治（北京尚东数字谷店)",
    "brand": "Wagas",
    "city": "北京市",
    "addr": "北京市海淀区东北旺西路8号42号楼地下一层104号",
    "fmt": "Office/BusinessPark",
    "lng": 116.29532189429402,
    "lat": 40.044333917823565,
    "ads": 0,
    "market": null,
    "overlap": 0,
    "overlap_names": [],
    "channel": null,
    "dist": null
  },
  {
    "sid": "SHW11-1",
    "name": "轻遇三明治（上海96广场店)",
    "brand": "Wagas",
    "city": "上海市",
    "addr": "上海市浦东新区东方路796号96广场171单元",
    "fmt": "Shopping Mall",
    "lng": 121.52889686884939,
    "lat": 31.22483411238894,
    "ads": 0,
    "market": null,
    "overlap": 0,
    "overlap_names": [],
    "channel": null,
    "dist": null
  },
  {
    "sid": "BJW60-1",
    "name": "轻遇三明治（北京世界城店)",
    "brand": "Wagas",
    "city": "北京市",
    "addr": "  北京市朝阳区金汇路8-9号中骏世界城W127号",
    "fmt": "Shopping Mall",
    "lng": 116.4586238419322,
    "lat": 39.91903913586251,
    "ads": 0,
    "market": null,
    "overlap": 0,
    "overlap_names": [],
    "channel": null,
    "dist": null
  },
  {
    "sid": "BJW25-1",
    "name": "轻遇三明治（北京五道口购物中心店)",
    "brand": "Wagas",
    "city": "北京市",
    "addr": "北京市海淀区成府路28号邦泰优盛大厦1层101室09号",
    "fmt": "Shopping Mall",
    "lng": 116.3453975955058,
    "lat": 39.99336386116347,
    "ads": 0,
    "market": null,
    "overlap": 0,
    "overlap_names": [],
    "channel": null,
    "dist": null
  },
  {
    "sid": "BJW30-1",
    "name": "轻遇三明治（北京新辰里酒仙桥店)",
    "brand": "Wagas",
    "city": "北京市",
    "addr": "北京市朝阳区酒仙桥路12号一层F1-005",
    "fmt": "Shopping Mall",
    "lng": 116.49681940361098,
    "lat": 39.97715209128902,
    "ads": 0,
    "market": null,
    "overlap": 0,
    "overlap_names": [],
    "channel": null,
    "dist": null
  },
  {
    "sid": "BJW26-1",
    "name": "轻遇三明治（北京新辰里店)",
    "brand": "Wagas",
    "city": "北京市",
    "addr": "北京市朝阳区北辰东路8号院新辰里购物中心1层",
    "fmt": "Shopping Mall",
    "lng": 116.41298088367179,
    "lat": 39.99304305939579,
    "ads": 0,
    "market": null,
    "overlap": 0,
    "overlap_names": [],
    "channel": null,
    "dist": null
  },
  {
    "sid": "BJW22-1",
    "name": "轻遇三明治（北京西客站食宝街店)",
    "brand": "Wagas",
    "city": "北京市",
    "addr": "北京市海淀区羊坊路18号F1-078/079号店铺",
    "fmt": "Shopping Mall",
    "lng": 116.32836770596816,
    "lat": 39.89976864542757,
    "ads": 0,
    "market": null,
    "overlap": 0,
    "overlap_names": [],
    "channel": null,
    "dist": null
  },
  {
    "sid": "BJW15-1",
    "name": "轻遇三明治（北京大族广场店)",
    "brand": "Wagas",
    "city": "北京市",
    "addr": "北京市北京经济技术开发区荣华南路2号院9号楼1层F1-30、F1-31号",
    "fmt": "Office/BusinessPark",
    "lng": 116.51907395616722,
    "lat": 39.79401878951742,
    "ads": 0,
    "market": null,
    "overlap": 0,
    "overlap_names": [],
    "channel": null,
    "dist": null
  },
  {
    "sid": "SHBS7-1",
    "name": "轻遇三明治（上海丰尚国际生活中心）",
    "brand": "Baker & Spice",
    "city": "上海市",
    "addr": "上海市闵行区运乐路571号175室",
    "fmt": "Shopping Mall",
    "lng": 121.28724358743912,
    "lat": 31.20117456366061,
    "ads": 0,
    "market": null,
    "overlap": 0,
    "overlap_names": [],
    "channel": null,
    "dist": null
  },
  {
    "sid": "BJBS34",
    "name": "北京凤凰汇BS",
    "brand": "Baker & Spice",
    "city": "北京市",
    "addr": "北京市朝阳区曙光西里甲5号院北京凤凰汇L120a",
    "fmt": "Shopping Mall",
    "lng": 116.46398546021939,
    "lat": 39.964766170813135,
    "ads": 9213.939843749999,
    "market": null,
    "overlap": 0,
    "overlap_names": [],
    "channel": null,
    "dist": null
  },
  {
    "sid": "BJBS32",
    "name": "北京崇文门摩方",
    "brand": "Baker & Spice",
    "city": "北京市",
    "addr": "北京市东城区崇文门外大街1号北京魔方1层L109",
    "fmt": "Shopping Mall",
    "lng": 116.42635767441861,
    "lat": 39.89962582714888,
    "ads": 12897.030468750001,
    "market": null,
    "overlap": 0,
    "overlap_names": [],
    "channel": null,
    "dist": null
  },
  {
    "sid": "BJBS33",
    "name": "北京中海大吉巷店",
    "brand": "Baker & Spice",
    "city": "北京市",
    "addr": "北京市西城区骡马市大街264号FS1层FS16",
    "fmt": "Shopping Mall",
    "lng": 116.38229963058663,
    "lat": 39.88897042196498,
    "ads": 17502.467031250006,
    "market": null,
    "overlap": 0,
    "overlap_names": [],
    "channel": null,
    "dist": null
  },
  {
    "sid": "SHW82-1",
    "name": "轻遇三明治（上海汇智店）",
    "brand": "Wagas",
    "city": "上海市",
    "addr": "上海市浦东新区金科路3057号欧尚1栋1层 646-1001",
    "fmt": "Shopping Mall",
    "lng": 121.60601059363118,
    "lat": 31.201116972714573,
    "ads": 0,
    "market": null,
    "overlap": 0,
    "overlap_names": [],
    "channel": null,
    "dist": null
  },
  {
    "sid": "SHW48-1",
    "name": "轻遇三明治（上海复兴路店）",
    "brand": "Wagas",
    "city": "上海市",
    "addr": "上海黄浦区西藏南路569号102-A室",
    "fmt": "Street-front",
    "lng": 121.48754237356377,
    "lat": 31.217499737429183,
    "ads": 0,
    "market": null,
    "overlap": 0,
    "overlap_names": [],
    "channel": null,
    "dist": null
  },
  {
    "sid": "BJW38-1",
    "name": "轻遇三明治（北京远洋未来汇店）",
    "brand": "Wagas",
    "city": "北京市",
    "addr": "北京市朝阳区慈云寺北里209号远洋未来汇CF1-05 ",
    "fmt": "Shopping Mall",
    "lng": 116.49750915133171,
    "lat": 39.91722060712842,
    "ads": 0,
    "market": null,
    "overlap": 0,
    "overlap_names": [],
    "channel": null,
    "dist": null
  },
  {
    "sid": "BJW27-1",
    "name": "轻遇三明治（北京暖山店）",
    "brand": "Wagas",
    "city": "北京市",
    "addr": "北京市朝阳区红军营南路36号院1号楼1楼02室",
    "fmt": "Shopping Mall",
    "lng": 116.42179533963167,
    "lat": 40.033689593556616,
    "ads": 0,
    "market": null,
    "overlap": 0,
    "overlap_names": [],
    "channel": null,
    "dist": null
  },
  {
    "sid": "BJW19-1",
    "name": "轻遇三明治（北京玖安广场店）",
    "brand": "Wagas",
    "city": "北京市",
    "addr": "北京朝阳安定门外大街208号玖安广场1F-04商铺",
    "fmt": "Shopping Mall",
    "lng": 116.41516297992824,
    "lat": 39.95368798488535,
    "ads": 0,
    "market": null,
    "overlap": 0,
    "overlap_names": [],
    "channel": null,
    "dist": null
  },
  {
    "sid": "BJW49-1",
    "name": "轻遇三明治（北京金辉店）",
    "brand": "Wagas",
    "city": "北京市",
    "addr": "北京市朝阳区望京东园四区6号楼01-B1-09-1号",
    "fmt": "Office/BusinessPark",
    "lng": 116.49502463903238,
    "lat": 40.00416554263899,
    "ads": 0,
    "market": null,
    "overlap": 0,
    "overlap_names": [],
    "channel": null,
    "dist": null
  },
  {
    "sid": "BJW5-1",
    "name": "轻遇三明治（北京富力广场店）",
    "brand": "Wagas",
    "city": "北京市",
    "addr": "北京市朝阳区东三环中路63号富力中心1层A102内",
    "fmt": "Shopping Mall",
    "lng": 116.46694784332783,
    "lat": 39.89744943680387,
    "ads": 0,
    "market": null,
    "overlap": 0,
    "overlap_names": [],
    "channel": null,
    "dist": null
  },
  {
    "sid": "BJW28-1",
    "name": "轻遇三明治（北京国旅店）",
    "brand": "Wagas",
    "city": "北京市",
    "addr": "北京市西城区复兴门内大街99号国旅长安大厦第一层101",
    "fmt": "Shopping Mall",
    "lng": 116.36497588581882,
    "lat": 39.90997647861201,
    "ads": 0,
    "market": null,
    "overlap": 0,
    "overlap_names": [],
    "channel": null,
    "dist": null
  },
  {
    "sid": "NJW2",
    "name": "南京金鹰新街口店",
    "brand": "Wagas",
    "city": "南京市",
    "addr": "南京市汉中路89号金鹰国际购物中心B座1层B1-010商铺",
    "fmt": "Shopping Mall",
    "lng": 118.78500002057348,
    "lat": 32.03943482470593,
    "ads": 18249.760000000002,
    "market": null,
    "overlap": 0,
    "overlap_names": [],
    "channel": null,
    "dist": null
  },
  {
    "sid": "CDBS4",
    "name": "成都悠方",
    "brand": "Baker & Spice",
    "city": "成都市",
    "addr": "成都市武侯区交子大道300号L1层130号商铺",
    "fmt": "Shopping Mall",
    "lng": 104.05748747268771,
    "lat": 30.58072957528801,
    "ads": 14913.662968749999,
    "market": null,
    "overlap": 0,
    "overlap_names": [],
    "channel": null,
    "dist": null
  },
  {
    "sid": "SHBS71",
    "name": "上海环贸广场",
    "brand": "Baker & Spice",
    "city": "上海市",
    "addr": "上海市徐汇区淮海中路999 号上海环贸广场五层（L5)518室",
    "fmt": "Shopping Mall",
    "lng": 121.46285215870381,
    "lat": 31.213706187629587,
    "ads": 16195.961718749997,
    "market": null,
    "overlap": 0,
    "overlap_names": [],
    "channel": null,
    "dist": null
  },
  {
    "sid": "BJW74",
    "name": "北京华堂新辰汇",
    "brand": "Wagas",
    "city": "北京市",
    "addr": "北京市朝阳区北四环东路 108号院华堂新辰汇一层004号",
    "fmt": "Shopping Mall",
    "lng": 116.42683882826996,
    "lat": 39.98951813374671,
    "ads": 14464.84859375,
    "market": null,
    "overlap": 0,
    "overlap_names": [],
    "channel": null,
    "dist": null
  },
  {
    "sid": "BJW73",
    "name": "北京大兴机场",
    "brand": "Wagas",
    "city": "北京市",
    "addr": "北京市大兴区大兴国际机场国内混流核心区S-BL02-007/S-BL02-008",
    "fmt": "Transportation center",
    "lng": 116.42476166644052,
    "lat": 39.51333105503419,
    "ads": 15200.834687500002,
    "market": null,
    "overlap": 0,
    "overlap_names": [],
    "channel": null,
    "dist": null
  },
  {
    "sid": "BJBS31",
    "name": "北京双安商场店",
    "brand": "Baker & Spice",
    "city": "北京市",
    "addr": "北京市海淀区北三环西路38号F1-B12",
    "fmt": "Shopping Mall",
    "lng": 116.33251585998616,
    "lat": 39.967408902147774,
    "ads": 15103.165781250002,
    "market": null,
    "overlap": 0,
    "overlap_names": [],
    "channel": null,
    "dist": null
  },
  {
    "sid": "BJBS30",
    "name": "北京安贞环宇荟店",
    "brand": "Baker & Spice",
    "city": "北京市",
    "addr": "北京市朝阳区安定路5号院6号楼L1层L101-1；L101-2单元",
    "fmt": "Shopping Mall",
    "lng": 116.41289711384543,
    "lat": 39.97924650904347,
    "ads": 25602.422343749997,
    "market": null,
    "overlap": 0,
    "overlap_names": [],
    "channel": null,
    "dist": null
  },
  {
    "sid": "SHW139",
    "name": "上海金虹桥",
    "brand": "Wagas",
    "city": "上海市",
    "addr": "上海市长宁区茅台路179号金虹桥国际中心商场L1楼层L109商铺",
    "fmt": "Shopping Mall",
    "lng": 121.40693726954765,
    "lat": 31.20766033622762,
    "ads": 10754.456562499996,
    "market": null,
    "overlap": 0,
    "overlap_names": [],
    "channel": null,
    "dist": null
  },
  {
    "sid": "BJW72",
    "name": "北京天虹",
    "brand": "Wagas",
    "city": "北京市",
    "addr": "北京市西城区广安门外大街168号北京天虹百货1层116号",
    "fmt": "Shopping Mall",
    "lng": 116.34760630511168,
    "lat": 39.89012271834567,
    "ads": 14637.004218750004,
    "market": null,
    "overlap": 0,
    "overlap_names": [],
    "channel": null,
    "dist": null
  },
  {
    "sid": "BJBS29",
    "name": "北京英皇",
    "brand": "Baker & Spice",
    "city": "北京市",
    "addr": "北京市朝阳区建外大街丁12号英皇集团中心一层111号",
    "fmt": "Office/BusinessPark",
    "lng": 116.45104897572658,
    "lat": 39.909125669229546,
    "ads": 11944.251718749996,
    "market": null,
    "overlap": 0,
    "overlap_names": [],
    "channel": null,
    "dist": null
  },
  {
    "sid": "BJW71",
    "name": "北京弯里中心店",
    "brand": "Wagas",
    "city": "北京市",
    "addr": "北京市朝阳区金蝉北路金蝉欢乐园2号院甲1号楼N1-F1-03A、N1-F1-03B",
    "fmt": "Street-front",
    "lng": 116.50673249765143,
    "lat": 39.86579550626943,
    "ads": 13697.572499999997,
    "market": null,
    "overlap": 0,
    "overlap_names": [],
    "channel": null,
    "dist": null
  },
  {
    "sid": "GZW11",
    "name": "广州天河城",
    "brand": "Wagas",
    "city": "广州市",
    "addr": "广州市天河区天河路208号天河城购物中心二层202-1号商铺",
    "fmt": "Shopping Mall",
    "lng": 113.32816076790796,
    "lat": 23.129696122612394,
    "ads": 11721.19546875,
    "market": null,
    "overlap": 0,
    "overlap_names": [],
    "channel": null,
    "dist": null
  },
  {
    "sid": "BJLK4",
    "name": "北京祥云小镇",
    "brand": "Lokal",
    "city": "北京市",
    "addr": "北京市顺义区安泰大街9号院北京祥云小镇0308-101-a号商铺",
    "fmt": "Shopping Mall",
    "lng": 116.54179514169006,
    "lat": 40.09067017497252,
    "ads": 10638.755000000005,
    "market": null,
    "overlap": 0,
    "overlap_names": [],
    "channel": null,
    "dist": null
  },
  {
    "sid": "TJW4",
    "name": "天津南开大悦城",
    "brand": "Wagas",
    "city": "天津市",
    "addr": "天津市南开区南门外大街2号天津大悦城购物中心北区 1F-55号商铺",
    "fmt": "Shopping Mall",
    "lng": 117.18653864199976,
    "lat": 39.13615202102635,
    "ads": 9261.69609375,
    "market": null,
    "overlap": 0,
    "overlap_names": [],
    "channel": null,
    "dist": null
  },
  {
    "sid": "XIAW2",
    "name": "西安曲江创意谷店",
    "brand": "Wagas",
    "city": "西安市",
    "addr": "西安市曲江新区雁翔路3369号曲江创意谷LG-61号",
    "fmt": "Shopping Mall",
    "lng": 109.01702124647566,
    "lat": 34.210936312066536,
    "ads": 9486.140937499998,
    "market": null,
    "overlap": 0,
    "overlap_names": [],
    "channel": null,
    "dist": null
  },
  {
    "sid": "BJW70",
    "name": "北京太阳宫凯德店",
    "brand": "Wagas",
    "city": "北京市",
    "addr": "北京市朝阳区太阳宫中路12号凯德MALL• 太阳宫”01层13A/14号",
    "fmt": "Shopping Mall",
    "lng": 116.45443485486624,
    "lat": 39.97276284073621,
    "ads": 12716.974374999998,
    "market": null,
    "overlap": 0,
    "overlap_names": [],
    "channel": null,
    "dist": null
  },
  {
    "sid": "SHW138",
    "name": "上海森兰商都",
    "brand": "Wagas",
    "city": "上海市",
    "addr": "上海浦东新区启帆路628号森兰商都1楼101-2部位",
    "fmt": "Shopping Mall",
    "lng": 121.59610733310964,
    "lat": 31.309680625403953,
    "ads": 14917.988437500002,
    "market": null,
    "overlap": 0,
    "overlap_names": [],
    "channel": null,
    "dist": null
  },
  {
    "sid": "SHBS70",
    "name": "上海古北璟辰公寓",
    "brand": "Baker & Spice",
    "city": "上海市",
    "addr": "上海市长宁区伊犁南路288弄璟辰公寓7幢7号楼1层7_1_1 室101",
    "fmt": "Street-front",
    "lng": 121.40923937567226,
    "lat": 31.19076565844269,
    "ads": 16257.180312499999,
    "market": null,
    "overlap": 0,
    "overlap_names": [],
    "channel": null,
    "dist": null
  },
  {
    "sid": "SZW23",
    "name": "深圳坂田万科广场",
    "brand": "Wagas",
    "city": "深圳市",
    "addr": "广东省深圳市龙岗区坂田街道东坡路3号坂田万科广场  (项目)G层S-26、G层C-27号",
    "fmt": "Shopping Mall",
    "lng": 114.07499279362631,
    "lat": 22.625542282500177,
    "ads": 14281.75203125,
    "market": null,
    "overlap": 0,
    "overlap_names": [],
    "channel": null,
    "dist": null
  },
  {
    "sid": "SHBS69",
    "name": "上海百联南方",
    "brand": "Baker & Spice",
    "city": "上海市",
    "addr": "上海市沪闵路7388号、7250号‍F01‍层G04-01F01-01-0053‍ 室",
    "fmt": "Shopping Mall",
    "lng": 121.40516809839563,
    "lat": 31.13006329381444,
    "ads": 13581.492187500002,
    "market": null,
    "overlap": 0,
    "overlap_names": [],
    "channel": null,
    "dist": null
  },
  {
    "sid": "BJBS28",
    "name": "北京首开通州万象汇",
    "brand": "Baker & Spice",
    "city": "北京市",
    "addr": "北京市通州区运河东大街 51 号 L131a",
    "fmt": "Shopping Mall",
    "lng": 116.74011517702165,
    "lat": 39.90516162058155,
    "ads": 7766.0443749999995,
    "market": null,
    "overlap": 0,
    "overlap_names": [],
    "channel": null,
    "dist": null
  },
  {
    "sid": "BJW69",
    "name": "北京佳程广场",
    "brand": "Wagas",
    "city": "北京市",
    "addr": "北京市朝阳区霞光里18号佳程广场A座1层102",
    "fmt": "Office/BusinessPark",
    "lng": 116.46436249002839,
    "lat": 39.95817604178684,
    "ads": 14326.2903125,
    "market": null,
    "overlap": 0,
    "overlap_names": [],
    "channel": null,
    "dist": null
  },
  {
    "sid": "SUZBS6",
    "name": "苏州永旺",
    "brand": "Baker & Spice",
    "city": "苏州市",
    "addr": "苏州市工业园区钟南街238号1F191-1",
    "fmt": "Shopping Mall",
    "lng": 120.7616563824367,
    "lat": 31.320938622460563,
    "ads": 13909.032187499995,
    "market": null,
    "overlap": 0,
    "overlap_names": [],
    "channel": null,
    "dist": null
  },
  {
    "sid": "NBLK1",
    "name": "宁波K11-LK",
    "brand": "Lokal",
    "city": "宁波市",
    "addr": "浙江省宁波市豫源街19号1F层C109号铺位",
    "fmt": "Shopping Mall",
    "lng": 121.56650364269379,
    "lat": 29.86485553274163,
    "ads": 7126.051874999997,
    "market": null,
    "overlap": 0,
    "overlap_names": [],
    "channel": null,
    "dist": null
  },
  {
    "sid": "SHW136",
    "name": "上海太阳宫2",
    "brand": "Wagas",
    "city": "上海市",
    "addr": "上海市虹口区瑞虹路181号5层 520、K39室",
    "fmt": "Shopping Mall",
    "lng": 121.50490308892692,
    "lat": 31.261090754731743,
    "ads": 12549.688593750001,
    "market": null,
    "overlap": 0,
    "overlap_names": [],
    "channel": null,
    "dist": null
  },
  {
    "sid": "BJW68",
    "name": "北京八达岭奥特莱斯",
    "brand": "Wagas",
    "city": "北京市",
    "addr": "北京市昌平区南口路1号院八达岭奥莱C1区1号楼1层116号",
    "fmt": "Shopping Mall",
    "lng": 116.17686188131599,
    "lat": 40.236358243176205,
    "ads": 11442.8340625,
    "market": null,
    "overlap": 0,
    "overlap_names": [],
    "channel": null,
    "dist": null
  },
  {
    "sid": "SHLK19",
    "name": "上海荟聚",
    "brand": "Lokal",
    "city": "上海市",
    "addr": "上海市长宁区金钟路 788 号上海荟聚中心L4层04C04号",
    "fmt": "Shopping Mall",
    "lng": 121.36608402730931,
    "lat": 31.2184637120769,
    "ads": 10626.837500000001,
    "market": null,
    "overlap": 0,
    "overlap_names": [],
    "channel": null,
    "dist": null
  },
  {
    "sid": "BJBS27",
    "name": "北京印象城",
    "brand": "Baker & Spice",
    "city": "北京市",
    "addr": "北京市海淀区翠微路12号海淀印象城第MA栋L1层01-27号",
    "fmt": "Shopping Mall",
    "lng": 116.30911081659553,
    "lat": 39.91351691969212,
    "ads": 13209.636093749998,
    "market": null,
    "overlap": 0,
    "overlap_names": [],
    "channel": null,
    "dist": null
  },
  {
    "sid": "SHBS68",
    "name": "上海世博天地",
    "brand": "Baker & Spice",
    "city": "上海市",
    "addr": "中国（上海）自由贸易试验区世博大道1515号办公B一层L137",
    "fmt": "Shopping Mall",
    "lng": 121.49300810840663,
    "lat": 31.182358615013886,
    "ads": 13355.03984375,
    "market": null,
    "overlap": 0,
    "overlap_names": [],
    "channel": null,
    "dist": null
  },
  {
    "sid": "BJW67",
    "name": "北京凯德晶品",
    "brand": "Wagas",
    "city": "北京市",
    "addr": "在北京市海淀区复兴路51号1幢凯德晶品购物中 心01层19/20号",
    "fmt": "Shopping Mall",
    "lng": 116.30325390833377,
    "lat": 39.90963176110745,
    "ads": 14404.271874999997,
    "market": null,
    "overlap": 0,
    "overlap_names": [],
    "channel": null,
    "dist": null
  },
  {
    "sid": "SHW135",
    "name": "上海绿地外滩中心",
    "brand": "Wagas",
    "city": "上海市",
    "addr": "上海市黄浦区中山南路800弄3/4号绿地外滩中心1层L104b,L104c",
    "fmt": "Shopping Mall",
    "lng": 121.50933865762555,
    "lat": 31.211084641572906,
    "ads": 12912.716562499996,
    "market": null,
    "overlap": 0,
    "overlap_names": [],
    "channel": null,
    "dist": null
  },
  {
    "sid": "SHW134",
    "name": "上海芮欧",
    "brand": "Wagas",
    "city": "上海市",
    "addr": "上海市静安区南京西路1601号越洋广场商场B102室",
    "fmt": "Shopping Mall",
    "lng": 121.45215616277875,
    "lat": 31.22120857822023,
    "ads": 19124.85015624999,
    "market": null,
    "overlap": 0,
    "overlap_names": [],
    "channel": null,
    "dist": null
  },
  {
    "sid": "BJLK3",
    "name": "北京朝阳大悦城",
    "brand": "Lokal",
    "city": "北京市",
    "addr": "北京市朝阳区朝阳北路101号楼朝阳大悦城购物中心【1F-31】号商铺",
    "fmt": "Shopping Mall",
    "lng": 116.5246421513955,
    "lat": 39.92552835797679,
    "ads": 10970.431718750002,
    "market": null,
    "overlap": 0,
    "overlap_names": [],
    "channel": null,
    "dist": null
  },
  {
    "sid": "BJW66",
    "name": "北京官舍北区",
    "brand": "Wagas",
    "city": "北京市",
    "addr": "北京朝阳区东方东路19号1号楼官舍2号商铺",
    "fmt": "Shopping Mall",
    "lng": 116.46982588205813,
    "lat": 39.95217075326545,
    "ads": 13663.688124999999,
    "market": null,
    "overlap": 0,
    "overlap_names": [],
    "channel": null,
    "dist": null
  },
  {
    "sid": "SUZW6",
    "name": "苏州苏悦广场",
    "brand": "Wagas",
    "city": "苏州市",
    "addr": "苏州工业园区苏州大道西119号苏悦商贸广场南区楼商场S1层S1-12单元",
    "fmt": "Shopping Mall",
    "lng": 120.6733602859791,
    "lat": 31.312988562073084,
    "ads": 12622.931249999994,
    "market": null,
    "overlap": 0,
    "overlap_names": [],
    "channel": null,
    "dist": null
  },
  {
    "sid": "TJW2",
    "name": "天津国金汇",
    "brand": "Wagas",
    "city": "天津市",
    "addr": "天津市和平区南京路108号国金汇商场1 层 L1-02号",
    "fmt": "Shopping Mall",
    "lng": 117.20382134106596,
    "lat": 39.12031003267692,
    "ads": 9183.579218750001,
    "market": null,
    "overlap": 0,
    "overlap_names": [],
    "channel": null,
    "dist": null
  },
  {
    "sid": "SHBS67",
    "name": "上海浦建巴黎春天",
    "brand": "Baker & Spice",
    "city": "上海市",
    "addr": "上海市浦东新区浦建路118号地上一层#9号商铺",
    "fmt": "Shopping Mall",
    "lng": 121.52400338072079,
    "lat": 31.206730257589207,
    "ads": 23106.544531249998,
    "market": null,
    "overlap": 0,
    "overlap_names": [],
    "channel": null,
    "dist": null
  },
  {
    "sid": "SHBS66",
    "name": "上海闵行龙湖",
    "brand": "Baker & Spice",
    "city": "上海市",
    "addr": "上海市闵行区剑川路1000弄上海闵行天街A-1F-50",
    "fmt": "Shopping Mall",
    "lng": 121.4197553846385,
    "lat": 31.023951000042135,
    "ads": 19487.633750000005,
    "market": null,
    "overlap": 0,
    "overlap_names": [],
    "channel": null,
    "dist": null
  },
  {
    "sid": "XIAW1",
    "name": "西安万象城",
    "brand": "Wagas",
    "city": "西安市",
    "addr": "西安市雁塔区长安南路与雁展路交汇处西安万象城B203+B204",
    "fmt": "Shopping Mall",
    "lng": 108.95419075576564,
    "lat": 34.194197925013796,
    "ads": 13304.324375,
    "market": null,
    "overlap": 0,
    "overlap_names": [],
    "channel": null,
    "dist": null
  },
  {
    "sid": "CDW20",
    "name": "成都仁和新城",
    "brand": "Wagas",
    "city": "成都市",
    "addr": "成都市武侯区府城大道西段505号",
    "fmt": "Shopping Mall",
    "lng": 104.05479611185474,
    "lat": 30.585087012230538,
    "ads": 12323.159999999996,
    "market": null,
    "overlap": 0,
    "overlap_names": [],
    "channel": null,
    "dist": null
  },
  {
    "sid": "BJLK2",
    "name": "北京西单大悦城",
    "brand": "Lokal",
    "city": "北京市",
    "addr": "北京市西城区西单北大街131号6F-C07号",
    "fmt": "Shopping Mall",
    "lng": 116.37880806153106,
    "lat": 39.91272559630713,
    "ads": 16495.746718749997,
    "market": null,
    "overlap": 0,
    "overlap_names": [],
    "channel": null,
    "dist": null
  },
  {
    "sid": "BJW65",
    "name": "北京石景山万达店",
    "brand": "Wagas",
    "city": "北京市",
    "addr": "北京市石景山区石景山路乙18号院北京石景山万达广场【1F】层【118,119】号商铺",
    "fmt": "Shopping Mall",
    "lng": 116.23165092312775,
    "lat": 39.90754125832054,
    "ads": 17377.238437500004,
    "market": null,
    "overlap": 0,
    "overlap_names": [],
    "channel": null,
    "dist": null
  },
  {
    "sid": "TJW3",
    "name": "天津梅江龙湖",
    "brand": "Wagas",
    "city": "天津市",
    "addr": "天津市西青区李七庄街道梅江道龙湖天津梅江天街1F-01a",
    "fmt": "Shopping Mall",
    "lng": 117.21485631804907,
    "lat": 39.06536366645309,
    "ads": 9352.70984375,
    "market": null,
    "overlap": 0,
    "overlap_names": [],
    "channel": null,
    "dist": null
  },
  {
    "sid": "SHJN1",
    "name": "上海漕河泾三期",
    "brand": "JUNi",
    "city": "上海市",
    "addr": "合川路2570号2幢105A室",
    "fmt": "Office/BusinessPark",
    "lng": 121.39006715805884,
    "lat": 31.164267181027622,
    "ads": 4316.875409836065,
    "market": null,
    "overlap": 0,
    "overlap_names": [],
    "channel": null,
    "dist": null
  },
  {
    "sid": "ZHBS2",
    "name": "珠海环宇城",
    "brand": "Baker & Spice",
    "city": "珠海市",
    "addr": "珠海市香洲区前河北路96号珠海环宇城L1-141B/L1-142A铺",
    "fmt": "Shopping Mall",
    "lng": 113.52997935775677,
    "lat": 22.231376579157303,
    "ads": 10650.746875000003,
    "market": null,
    "overlap": 0,
    "overlap_names": [],
    "channel": null,
    "dist": null
  },
  {
    "sid": "BJBS25",
    "name": "北京龙湖蓝海",
    "brand": "Baker & Spice",
    "city": "北京市",
    "addr": "北京市朝阳区来广营乡北苑小街8号6号楼一层001室",
    "fmt": "Office/BusinessPark",
    "lng": 116.44509463476044,
    "lat": 40.02742984436694,
    "ads": 7395.426249999998,
    "market": null,
    "overlap": 0,
    "overlap_names": [],
    "channel": null,
    "dist": null
  },
  {
    "sid": "BJBS26",
    "name": "北京凯德MALL西直门",
    "brand": "Baker & Spice",
    "city": "北京市",
    "addr": "北京市西城区西直门外大街1号1层22A号",
    "fmt": "Shopping Mall",
    "lng": 116.35850649044329,
    "lat": 39.94330733390541,
    "ads": 19258.619843749995,
    "market": null,
    "overlap": 0,
    "overlap_names": [],
    "channel": null,
    "dist": null
  },
  {
    "sid": "BJBS24",
    "name": "北京望京保利",
    "brand": "Baker & Spice",
    "city": "北京市",
    "addr": "北京市朝阳 区香宾路66号保利广场项目L1-24号",
    "fmt": "Office/BusinessPark",
    "lng": 116.47269812053472,
    "lat": 40.01827131377464,
    "ads": 11097.733593750001,
    "market": null,
    "overlap": 0,
    "overlap_names": [],
    "channel": null,
    "dist": null
  },
  {
    "sid": "CDW19",
    "name": "成都世豪",
    "brand": "Wagas",
    "city": "成都市",
    "addr": "成都市高新区剑南大道 998 号1层C111b",
    "fmt": "Shopping Mall",
    "lng": 104.0479022997945,
    "lat": 30.54822950007115,
    "ads": 13987.438124999995,
    "market": null,
    "overlap": 0,
    "overlap_names": [],
    "channel": null,
    "dist": null
  },
  {
    "sid": "SHFK9",
    "name": "上海兴业太古汇FK",
    "brand": "Funk & Kale",
    "city": "上海市",
    "addr": "上海市静安区石门一路288号兴业太古汇商场第LG161号单元",
    "fmt": "Shopping Mall",
    "lng": 121.46792776858305,
    "lat": 31.226855203128856,
    "ads": 18636.239062499997,
    "market": null,
    "overlap": 0,
    "overlap_names": [],
    "channel": null,
    "dist": null
  },
  {
    "sid": "SHW132",
    "name": "上海凯德星贸",
    "brand": "Wagas",
    "city": "上海市",
    "addr": "上海市静安区恒通路318号1层01/02A号",
    "fmt": "Shopping Mall",
    "lng": 121.4626599411518,
    "lat": 31.239262486864476,
    "ads": 14603.8175,
    "market": null,
    "overlap": 0,
    "overlap_names": [],
    "channel": null,
    "dist": null
  },
  {
    "sid": "HZW18",
    "name": "杭州奥体印象城",
    "brand": "Wagas",
    "city": "杭州市",
    "addr": "浙江省杭州市萧山区钱江世纪城金鸡路与扬帆路交叉口第MA栋第L1层的第L1-23;L1-K09号",
    "fmt": "Shopping Mall",
    "lng": 120.25704828021823,
    "lat": 30.220753119251988,
    "ads": 16208.456718750002,
    "market": null,
    "overlap": 0,
    "overlap_names": [],
    "channel": null,
    "dist": null
  },
  {
    "sid": "NBW5",
    "name": "宁波来福士1",
    "brand": "Wagas",
    "city": "宁波市",
    "addr": "宁波市江北区大庆南路99号宁波来福士广场01-10/11",
    "fmt": "Shopping Mall",
    "lng": 121.5618344681931,
    "lat": 29.879913418496503,
    "ads": 5787.073906249999,
    "market": null,
    "overlap": 0,
    "overlap_names": [],
    "channel": null,
    "dist": null
  },
  {
    "sid": "SHW37",
    "name": "上海虹桥国际机场 T1店1",
    "brand": "Wagas",
    "city": "上海市",
    "addr": "上海虹桥国际机场T1航站楼 5米层国际出发禁区 1-110",
    "fmt": "Transportation center",
    "lng": 121.35069224978912,
    "lat": 31.19344855374402,
    "ads": 17000.746875,
    "market": null,
    "overlap": 0,
    "overlap_names": [],
    "channel": null,
    "dist": null
  },
  {
    "sid": "GZW10",
    "name": "广州YY欢聚大厦店",
    "brand": "Wagas",
    "city": "广州市",
    "addr": "海珠区美居北街欢聚大厦24号101铺",
    "fmt": "Office/BusinessPark",
    "lng": 113.3511202633204,
    "lat": 23.101960854321238,
    "ads": 9333.432031249999,
    "market": null,
    "overlap": 0,
    "overlap_names": [],
    "channel": null,
    "dist": null
  },
  {
    "sid": "BJBS23",
    "name": "北京西北旺",
    "brand": "Baker & Spice",
    "city": "北京市",
    "addr": "北京市海淀区德政路16号院西北旺万象汇1层L132号",
    "fmt": "Shopping Mall",
    "lng": 116.26485400068634,
    "lat": 40.0506654206847,
    "ads": 16701.695624999997,
    "market": null,
    "overlap": 0,
    "overlap_names": [],
    "channel": null,
    "dist": null
  },
  {
    "sid": "SHW129",
    "name": "上海漫趣邻舍",
    "brand": "Wagas",
    "city": "上海市",
    "addr": "西藏南路1699弄璟湾公寓项目1 幢 25 号 107 室、1 幢 1653 号 1 层",
    "fmt": "Street-front",
    "lng": 121.49568291958792,
    "lat": 31.197908360414452,
    "ads": 10293.661406250005,
    "market": null,
    "overlap": 0,
    "overlap_names": [],
    "channel": null,
    "dist": null
  },
  {
    "sid": "SHBS65",
    "name": "上海长风大悦城BS",
    "brand": "Baker & Spice",
    "city": "上海市",
    "addr": "上海市普陀区大渡河路196号111-04/110室",
    "fmt": "Shopping Mall",
    "lng": 121.40039810586988,
    "lat": 31.220456064846385,
    "ads": 9731.203125,
    "market": null,
    "overlap": 0,
    "overlap_names": [],
    "channel": null,
    "dist": null
  },
  {
    "sid": "SHW130",
    "name": "上海新达汇",
    "brand": "Wagas",
    "city": "上海市",
    "addr": "上海市浦东新区永泰路1058弄1-26号 110-1-2号商铺",
    "fmt": "Shopping Mall",
    "lng": 121.53000389759029,
    "lat": 31.140081670262077,
    "ads": 15225.966406249998,
    "market": null,
    "overlap": 0,
    "overlap_names": [],
    "channel": null,
    "dist": null
  },
  {
    "sid": "BJW63",
    "name": "北京汉威",
    "brand": "Wagas",
    "city": "北京市",
    "addr": "北京市丰台区南四环西路186号汉威广场二区9号楼1层02-03号",
    "fmt": "Office/BusinessPark",
    "lng": 116.30179086876709,
    "lat": 39.82685405014482,
    "ads": 9376.323437500005,
    "market": null,
    "overlap": 0,
    "overlap_names": [],
    "channel": null,
    "dist": null
  },
  {
    "sid": "BJLK1",
    "name": "北京太古里LK",
    "brand": "Lokal",
    "city": "北京市",
    "addr": "北京市朝阳区三里屯路19号三里屯太古里3楼S8-33  ",
    "fmt": "Shopping Mall",
    "lng": 116.4606364566276,
    "lat": 39.9361555215841,
    "ads": 25244.479843749996,
    "market": null,
    "overlap": 0,
    "overlap_names": [],
    "channel": null,
    "dist": null
  },
  {
    "sid": "SHW128",
    "name": "上海张江科技园区",
    "brand": "Wagas",
    "city": "上海市",
    "addr": "上海浦东新区环科路 555 弄科贤园 4 号楼 104 室",
    "fmt": "Office/BusinessPark",
    "lng": 121.60992774839187,
    "lat": 31.175379222109274,
    "ads": 19292.8490625,
    "market": null,
    "overlap": 0,
    "overlap_names": [],
    "channel": null,
    "dist": null
  },
  {
    "sid": "CDW16",
    "name": "成都天府大悦城",
    "brand": "Wagas",
    "city": "成都市",
    "addr": "天府新区天府大悦城购物中心L1-A-25",
    "fmt": "Shopping Mall",
    "lng": 104.09143286888916,
    "lat": 30.430825939063887,
    "ads": 9227.0590625,
    "market": null,
    "overlap": 0,
    "overlap_names": [],
    "channel": null,
    "dist": null
  },
  {
    "sid": "NJW15",
    "name": "南京河西万达",
    "brand": "Wagas",
    "city": "南京市",
    "addr": "江苏省南京市建邺区 98 号1F层153",
    "fmt": "Shopping Mall",
    "lng": 118.74116709863563,
    "lat": 32.03068454107547,
    "ads": 8663.354531250001,
    "market": null,
    "overlap": 0,
    "overlap_names": [],
    "channel": null,
    "dist": null
  },
  {
    "sid": "NJW16",
    "name": "南京新城市",
    "brand": "Wagas",
    "city": "南京市",
    "addr": "南京市草场门大街99号第一层A103",
    "fmt": "Shopping Mall",
    "lng": 118.74654444024736,
    "lat": 32.05572333584394,
    "ads": 10020.745937499998,
    "market": null,
    "overlap": 0,
    "overlap_names": [],
    "channel": null,
    "dist": null
  },
  {
    "sid": "SHW126",
    "name": "徐家汇中心一期",
    "brand": "Wagas",
    "city": "上海市",
    "addr": "上海市徐汇区华山路 1901 号徐家汇威亿广场地下一层(LG1)127 室",
    "fmt": "Shopping Mall",
    "lng": 121.4422617171258,
    "lat": 31.19615390460437,
    "ads": 7627.354218750002,
    "market": null,
    "overlap": 0,
    "overlap_names": [],
    "channel": null,
    "dist": null
  },
  {
    "sid": "SHW127",
    "name": "上海欢乐颂",
    "brand": "Wagas",
    "city": "上海市",
    "addr": "上海市闵行区陈行公路 2688 号L116",
    "fmt": "Shopping Mall",
    "lng": 121.50841780759214,
    "lat": 31.09304084363564,
    "ads": 19681.731093750008,
    "market": null,
    "overlap": 0,
    "overlap_names": [],
    "channel": null,
    "dist": null
  },
  {
    "sid": "SHBS56",
    "name": "上海EKA天物空间",
    "brand": "Baker & Spice",
    "city": "上海市",
    "addr": "上海市浦东新区金桥路 527-535 号内 13 幢第 470-1F 101、102、103、109、110、111 单元",
    "fmt": "Street-front",
    "lng": 121.58118164524957,
    "lat": 31.261158831735255,
    "ads": 11466.18765625,
    "market": null,
    "overlap": 0,
    "overlap_names": [],
    "channel": null,
    "dist": null
  },
  {
    "sid": "BJW61",
    "name": "北京新辰里学清路店",
    "brand": "Wagas",
    "city": "北京市",
    "addr": "北京市海淀区学清路甲8号",
    "fmt": "Shopping Mall",
    "lng": 116.36031677130696,
    "lat": 40.01021407253068,
    "ads": 14988.300625000003,
    "market": null,
    "overlap": 0,
    "overlap_names": [],
    "channel": null,
    "dist": null
  },
  {
    "sid": "BJW62",
    "name": "北京城乡购物中心",
    "brand": "Wagas",
    "city": "北京市",
    "addr": "北京市海淀区复兴路甲23号",
    "fmt": "Shopping Mall",
    "lng": 116.31182240044897,
    "lat": 39.911199898875076,
    "ads": 6646.738281250002,
    "market": null,
    "overlap": 0,
    "overlap_names": [],
    "channel": null,
    "dist": null
  },
  {
    "sid": "BJW60",
    "name": "北京世界城",
    "brand": "Wagas",
    "city": "北京市",
    "addr": "  北京市朝阳区金汇路8-9号中骏世界城W127号",
    "fmt": "Shopping Mall",
    "lng": 116.4586238419322,
    "lat": 39.91903913586251,
    "ads": 15308.183281249996,
    "market": null,
    "overlap": 0,
    "overlap_names": [],
    "channel": null,
    "dist": null
  },
  {
    "sid": "BJW34",
    "name": "北京新中关店WA",
    "brand": "Wagas",
    "city": "北京市",
    "addr": "北京市海淀区中关村大街19号新中关大厦一层L120",
    "fmt": "Shopping Mall",
    "lng": 116.3215195736661,
    "lat": 39.97960101874379,
    "ads": 20877.10203125,
    "market": null,
    "overlap": 0,
    "overlap_names": [],
    "channel": null,
    "dist": null
  },
  {
    "sid": "SHBS57",
    "name": "上海真如环宇城",
    "brand": "Baker & Spice",
    "city": "上海市",
    "addr": "上海市普陀区铜川路 699 弄 1 号上海真如环宇城 MAX购物中心L1层【L1016-2】",
    "fmt": "Shopping Mall",
    "lng": 121.41453904362434,
    "lat": 31.24816350662061,
    "ads": 15775.778906250001,
    "market": null,
    "overlap": 0,
    "overlap_names": [],
    "channel": null,
    "dist": null
  },
  {
    "sid": "BJW59",
    "name": "北京长安商场",
    "brand": "Wagas",
    "city": "北京市",
    "addr": "北京市西城区复兴门外大街15号1幢F1-124",
    "fmt": "Shopping Mall",
    "lng": 116.35149231382063,
    "lat": 39.9092856735095,
    "ads": 18295.141875,
    "market": null,
    "overlap": 0,
    "overlap_names": [],
    "channel": null,
    "dist": null
  },
  {
    "sid": "BJBS22",
    "name": "北京长楹天街",
    "brand": "Baker & Spice",
    "city": "北京市",
    "addr": "北京市朝阳区常通路2号院1号楼B栋-1F-36、37号",
    "fmt": "Shopping Mall",
    "lng": 116.60710086252274,
    "lat": 39.92598672617211,
    "ads": 21256.158593750002,
    "market": null,
    "overlap": 0,
    "overlap_names": [],
    "channel": null,
    "dist": null
  },
  {
    "sid": "SHW125",
    "name": "上海嘉亭荟",
    "brand": "Wagas",
    "city": "上海市",
    "addr": "上海市嘉定区墨玉南路 909 号，编号为 1122、1123-2、1124 室",
    "fmt": "Shopping Mall",
    "lng": 121.16624080602654,
    "lat": 31.285851754550222,
    "ads": 14719.268125000002,
    "market": null,
    "overlap": 0,
    "overlap_names": [],
    "channel": null,
    "dist": null
  },
  {
    "sid": "NJW13",
    "name": "南京华采天地",
    "brand": "Wagas",
    "city": "南京市",
    "addr": "南京市建邺区江东中路258号B1-06",
    "fmt": "Shopping Mall",
    "lng": 118.72713143606443,
    "lat": 31.995746417831036,
    "ads": 14196.709062500002,
    "market": null,
    "overlap": 0,
    "overlap_names": [],
    "channel": null,
    "dist": null
  },
  {
    "sid": "BJW58",
    "name": "北京大钟寺",
    "brand": "Wagas",
    "city": "北京市",
    "addr": "北京市海淀区北三环西路甲18号院1F-07-2号",
    "fmt": "Office/BusinessPark",
    "lng": 116.3483549171326,
    "lat": 39.96771031334966,
    "ads": 10044.8790625,
    "market": null,
    "overlap": 0,
    "overlap_names": [],
    "channel": null,
    "dist": null
  },
  {
    "sid": "GZBS2",
    "name": "广州粤海天地店",
    "brand": "Baker & Spice",
    "city": "广州市",
    "addr": "广东省广州市天河区珠江西路21号之七101房自编116、117号商铺",
    "fmt": "Shopping Mall",
    "lng": 113.32956123634827,
    "lat": 23.12361533310542,
    "ads": 15640.059843749998,
    "market": null,
    "overlap": 0,
    "overlap_names": [],
    "channel": null,
    "dist": null
  },
  {
    "sid": "SZBS8",
    "name": "深圳前海壹方汇店",
    "brand": "Baker & Spice",
    "city": "深圳市",
    "addr": "广东省深圳市南山区听海大道5059号前海鸿荣源中心A座B1-030",
    "fmt": "Shopping Mall",
    "lng": 113.90226007708085,
    "lat": 22.5260642970742,
    "ads": 12034.745312500003,
    "market": null,
    "overlap": 0,
    "overlap_names": [],
    "channel": null,
    "dist": null
  },
  {
    "sid": "SHLK17",
    "name": "上海江湾里",
    "brand": "Lokal",
    "city": "上海市",
    "addr": "上海市杨浦区民府路 678 号T3-1F-12 商铺",
    "fmt": "Shopping Mall",
    "lng": 121.51362403070368,
    "lat": 31.313489726878455,
    "ads": 13053.990468750004,
    "market": null,
    "overlap": 0,
    "overlap_names": [],
    "channel": null,
    "dist": null
  },
  {
    "sid": "CQW5",
    "name": "重庆陆海国际中心",
    "brand": "Wagas",
    "city": "重庆市",
    "addr": "重庆市渝中区华盛路万科陆海国际中心项目LI层L101A",
    "fmt": "Office/BusinessPark",
    "lng": 106.52164231682666,
    "lat": 29.547133721479454,
    "ads": 11637.240312500004,
    "market": null,
    "overlap": 0,
    "overlap_names": [],
    "channel": null,
    "dist": null
  },
  {
    "sid": "SHLK5",
    "name": "上海正大广场店",
    "brand": "Lokal",
    "city": "上海市",
    "addr": "上海市浦东新区陆家嘴西路168号正大广场1幢1层GF52号（陆家嘴西路入口，靠近Zara）Lokal",
    "fmt": "Shopping Mall",
    "lng": 121.50374301435973,
    "lat": 31.234738556551328,
    "ads": 11659.437343749998,
    "market": null,
    "overlap": 0,
    "overlap_names": [],
    "channel": null,
    "dist": null
  },
  {
    "sid": "WZW2",
    "name": "温州滨江万象城",
    "brand": "Wagas",
    "city": "温州市",
    "addr": "浙江省温州市鹿城区瓯江路 3999 号 -L129铺号",
    "fmt": "Shopping Mall",
    "lng": 120.71450957266488,
    "lat": 28.0140658444724,
    "ads": 9159.641904761902,
    "market": null,
    "overlap": 0,
    "overlap_names": [],
    "channel": null,
    "dist": null
  },
  {
    "sid": "HZBS2",
    "name": "杭州中心",
    "brand": "Baker & Spice",
    "city": "杭州市",
    "addr": "浙江省杭州市拱墅区天水街道展览东路 150 号-B229铺号",
    "fmt": "Shopping Mall",
    "lng": 120.17032327203003,
    "lat": 30.27063304911909,
    "ads": 17463.103593750002,
    "market": null,
    "overlap": 0,
    "overlap_names": [],
    "channel": null,
    "dist": null
  },
  {
    "sid": "ZHBS1",
    "name": "珠海中海富华里店",
    "brand": "Baker & Spice",
    "city": "珠海市",
    "addr": "广东省珠海市香洲区九洲大道西 2023 号中海富华里中心5栋一层101，102单元",
    "fmt": "Shopping Mall",
    "lng": 113.54596428605628,
    "lat": 22.232023033032117,
    "ads": 5782.493281249998,
    "market": null,
    "overlap": 0,
    "overlap_names": [],
    "channel": null,
    "dist": null
  },
  {
    "sid": "SZLK1",
    "name": "深圳湾万象城店",
    "brand": "Lokal",
    "city": "深圳市",
    "addr": "广东省深圳市南山区科苑南路2888号华润深圳湾万象城B151A 号商铺",
    "fmt": "Shopping Mall",
    "lng": 113.95139947237865,
    "lat": 22.513685271459373,
    "ads": 20063.247812499998,
    "market": null,
    "overlap": 0,
    "overlap_names": [],
    "channel": null,
    "dist": null
  },
  {
    "sid": "CDW18",
    "name": "成都天府凯德",
    "brand": "Wagas",
    "city": "成都市",
    "addr": "四川成都市高新区天仁路388号天府凯德01层01号",
    "fmt": "Shopping Mall",
    "lng": 104.07165046968409,
    "lat": 30.600415509325487,
    "ads": 8748.444687500001,
    "market": null,
    "overlap": 0,
    "overlap_names": [],
    "channel": null,
    "dist": null
  },
  {
    "sid": "SHBS63",
    "name": "上海长泰广场BS",
    "brand": "Baker & Spice",
    "city": "上海市",
    "addr": "上海市浦东新区祖冲之路1261 号，1269号 1 层 185 室，1 层 186 室",
    "fmt": "Shopping Mall",
    "lng": 121.60692574192316,
    "lat": 31.202800968728297,
    "ads": 19482.611406250006,
    "market": null,
    "overlap": 0,
    "overlap_names": [],
    "channel": null,
    "dist": null
  },
  {
    "sid": "SHW119",
    "name": "上海南翔中冶祥腾",
    "brand": "Wagas",
    "city": "上海市",
    "addr": "上海市嘉定区南翔镇真南路 4368  弄 3 号 1层 06 室",
    "fmt": "Shopping Mall",
    "lng": 121.32745026035158,
    "lat": 31.293965818215483,
    "ads": 13690.3121875,
    "market": null,
    "overlap": 0,
    "overlap_names": [],
    "channel": null,
    "dist": null
  },
  {
    "sid": "HZBS3",
    "name": "杭州滨江龙湖",
    "brand": "Baker & Spice",
    "city": "杭州市",
    "addr": "杭州市滨江区长河街道江汉路1515号01-1F-52.01-1F-53号",
    "fmt": "Shopping Mall",
    "lng": 120.20878987630174,
    "lat": 30.198404359900298,
    "ads": 16094.413125000003,
    "market": null,
    "overlap": 0,
    "overlap_names": [],
    "channel": null,
    "dist": null
  },
  {
    "sid": "SHBS53",
    "name": "上海青浦奥莱",
    "brand": "Baker & Spice",
    "city": "上海市",
    "addr": "上海市沪青平公路2888号A5-102室",
    "fmt": "Shopping Mall",
    "lng": 121.23241881820911,
    "lat": 31.153221187749725,
    "ads": 16932.67546875,
    "market": null,
    "overlap": 0,
    "overlap_names": [],
    "channel": null,
    "dist": null
  },
  {
    "sid": "SHBS49",
    "name": "上海蟠龙天地BS",
    "brand": "Baker & Spice",
    "city": "上海市",
    "addr": "上海市青浦区蟠龙路蟠龙天地BS117",
    "fmt": "Shopping Mall",
    "lng": 121.27991582321772,
    "lat": 31.187844301939634,
    "ads": 9155.397187500002,
    "market": null,
    "overlap": 0,
    "overlap_names": [],
    "channel": null,
    "dist": null
  },
  {
    "sid": "SHBS62",
    "name": "上海环球港2",
    "brand": "Baker & Spice",
    "city": "上海市",
    "addr": "上海市普陀区中山北路3300号B1053-B1055",
    "fmt": "Shopping Mall",
    "lng": 121.41726625278125,
    "lat": 31.231479913411864,
    "ads": 10674.745937500002,
    "market": null,
    "overlap": 0,
    "overlap_names": [],
    "channel": null,
    "dist": null
  },
  {
    "sid": "BJBS19",
    "name": "北京京西大悦城",
    "brand": "Baker & Spice",
    "city": "北京市",
    "addr": "北京市石景山区阜石路173号院1号楼B1-34 号",
    "fmt": "Shopping Mall",
    "lng": 116.18921199483033,
    "lat": 39.92669025538458,
    "ads": 10763.290156249996,
    "market": null,
    "overlap": 0,
    "overlap_names": [],
    "channel": null,
    "dist": null
  },
  {
    "sid": "HZW15",
    "name": "杭州中大银泰",
    "brand": "Wagas",
    "city": "杭州市",
    "addr": "杭州市下城区东新路822号石祥路138号商业广场L1层1024号",
    "fmt": "Shopping Mall",
    "lng": 120.18005266799227,
    "lat": 30.324827004479726,
    "ads": 10380.514687500001,
    "market": null,
    "overlap": 0,
    "overlap_names": [],
    "channel": null,
    "dist": null
  },
  {
    "sid": "SHW94",
    "name": "上海信泰中心",
    "brand": "Wagas",
    "city": "上海市",
    "addr": "上海市普陀区大渡河路1438号1楼T201A单元",
    "fmt": "Office/BusinessPark",
    "lng": 121.40088102055711,
    "lat": 31.24035535641722,
    "ads": 7840.163749999999,
    "market": null,
    "overlap": 0,
    "overlap_names": [],
    "channel": null,
    "dist": null
  },
  {
    "sid": "NBW5",
    "name": "宁波来福士",
    "brand": "Wagas",
    "city": "宁波市",
    "addr": "宁波市江北区大庆南路99号宁波来福士广场01-10/11",
    "fmt": "Shopping Mall",
    "lng": 121.5618344681931,
    "lat": 29.879913418496503,
    "ads": 5787.073906249999,
    "market": null,
    "overlap": 0,
    "overlap_names": [],
    "channel": null,
    "dist": null
  },
  {
    "sid": "WHW6",
    "name": "武汉越秀",
    "brand": "Wagas",
    "city": "武汉市",
    "addr": "湖北省武汉市江汉区越秀国际金融汇地上第一层L1005号商铺",
    "fmt": "Shopping Mall",
    "lng": 114.28248886004857,
    "lat": 30.583634269858262,
    "ads": 5621.964374999998,
    "market": null,
    "overlap": 0,
    "overlap_names": [],
    "channel": null,
    "dist": null
  },
  {
    "sid": "SHW99",
    "name": "上海奉贤龙湖",
    "brand": "Wagas",
    "city": "上海市",
    "addr": "上海市奉贤区金海公路3800号A-1F-26B,A-1F-26A号",
    "fmt": "Shopping Mall",
    "lng": 121.50157305043452,
    "lat": 30.912245904772757,
    "ads": 11384.633906250001,
    "market": null,
    "overlap": 0,
    "overlap_names": [],
    "channel": null,
    "dist": null
  },
  {
    "sid": "SZBS7",
    "name": "深圳海上世界",
    "brand": "Baker & Spice",
    "city": "深圳市",
    "addr": "广东省深圳市南山区蛇口海上世界南山宾馆114铺",
    "fmt": "Shopping Mall",
    "lng": 113.92069538331326,
    "lat": 22.480356230904956,
    "ads": 10853.904999999997,
    "market": null,
    "overlap": 0,
    "overlap_names": [],
    "channel": null,
    "dist": null
  },
  {
    "sid": "SHW121",
    "name": "上海世博绿谷",
    "brand": "Wagas",
    "city": "上海市",
    "addr": "上海市浦东新区众冠路101号C栋一楼A03B1-1102房屋",
    "fmt": "Office/BusinessPark",
    "lng": 121.50089504518336,
    "lat": 31.185245474594673,
    "ads": 13463.486415094338,
    "market": null,
    "overlap": 0,
    "overlap_names": [],
    "channel": null,
    "dist": null
  },
  {
    "sid": "BJW55",
    "name": "北京北苑龙湖店",
    "brand": "Wagas",
    "city": "北京市",
    "addr": "北京市朝阳区北苑东路19号院9号楼-3至6层101内1层A馆-1F-20",
    "fmt": "Shopping Mall",
    "lng": 116.44494014204056,
    "lat": 40.04422994230703,
    "ads": 12783.765624999998,
    "market": null,
    "overlap": 0,
    "overlap_names": [],
    "channel": null,
    "dist": null
  },
  {
    "sid": "HZW16",
    "name": "杭州天空之城",
    "brand": "Wagas",
    "city": "杭州市",
    "addr": "杭州市余杭塘路1088号五常街道云汇城1幢1-101室、",
    "fmt": "Shopping Mall",
    "lng": 120.04759803144191,
    "lat": 30.29641523113526,
    "ads": 9082.411406249998,
    "market": null,
    "overlap": 0,
    "overlap_names": [],
    "channel": null,
    "dist": null
  },
  {
    "sid": "TJW1",
    "name": "天津万象城",
    "brand": "Wagas",
    "city": "天津市",
    "addr": "天津市河西区乐园道9号万象城B1-058号",
    "fmt": "Shopping Mall",
    "lng": 117.21982165765428,
    "lat": 39.09124705600304,
    "ads": 15189.695781249999,
    "market": null,
    "overlap": 0,
    "overlap_names": [],
    "channel": null,
    "dist": null
  },
  {
    "sid": "BJW53",
    "name": "北京回龙观龙街",
    "brand": "Wagas",
    "city": "北京市",
    "addr": "北京市昌平区龙锦三街乙42号院1号楼一层1025号",
    "fmt": "Shopping Mall",
    "lng": 116.37711314509322,
    "lat": 40.08648671677072,
    "ads": 11572.898125,
    "market": null,
    "overlap": 0,
    "overlap_names": [],
    "channel": null,
    "dist": null
  },
  {
    "sid": "SHW123",
    "name": "上海尚浦汇",
    "brand": "Wagas",
    "city": "上海市",
    "addr": "上海市杨浦区江湾新城民府路578号尚浦汇一期T1幢商场1层104室",
    "fmt": "Office/BusinessPark",
    "lng": 121.5149193677081,
    "lat": 31.313455857351585,
    "ads": 18209.555468749997,
    "market": null,
    "overlap": 0,
    "overlap_names": [],
    "channel": null,
    "dist": null
  },
  {
    "sid": "BJW56",
    "name": "北京望京万象汇",
    "brand": "Wagas",
    "city": "北京市",
    "addr": "北京市朝阳区广顺北大街16号院3号楼望京华彩商业中心 一 层A108-1/A108号",
    "fmt": "Shopping Mall",
    "lng": 116.47530864894792,
    "lat": 40.012103291490455,
    "ads": 15526.978906249999,
    "market": null,
    "overlap": 0,
    "overlap_names": [],
    "channel": null,
    "dist": null
  },
  {
    "sid": "BJBS20",
    "name": "北京北辰荟",
    "brand": "Baker & Spice",
    "city": "北京市",
    "addr": "北京市朝阳区北辰西路6号院1号楼一层L118-1",
    "fmt": "Shopping Mall",
    "lng": 116.3939951589874,
    "lat": 40.00413010746663,
    "ads": 28766.705781249995,
    "market": null,
    "overlap": 0,
    "overlap_names": [],
    "channel": null,
    "dist": null
  },
  {
    "sid": "HZW17",
    "name": "杭州西溪印象城",
    "brand": "Wagas",
    "city": "杭州市",
    "addr": "浙江省杭州市余杭区常街道五常大道1号P1-01-15号",
    "fmt": "Shopping Mall",
    "lng": 120.05526908259671,
    "lat": 30.245169059996183,
    "ads": 10503.74796875,
    "market": null,
    "overlap": 0,
    "overlap_names": [],
    "channel": null,
    "dist": null
  },
  {
    "sid": "BJW57",
    "name": "北京双子座",
    "brand": "Wagas",
    "city": "北京市",
    "addr": "北京市朝阳区建国门外大街乙12号汇京双子座大厦中L1层L1-2/L1-9A号",
    "fmt": "Office/BusinessPark",
    "lng": 116.45500021599746,
    "lat": 39.909396142017584,
    "ads": 9232.542656250002,
    "market": null,
    "overlap": 0,
    "overlap_names": [],
    "channel": null,
    "dist": null
  },
  {
    "sid": "CDW11",
    "name": "成都麓湖生态城",
    "brand": "Wagas",
    "city": "成都市",
    "addr": "成都市天府新区华阳街道嘉州路168号3栋1楼111室",
    "fmt": "Shopping Mall",
    "lng": 104.06044797685811,
    "lat": 30.462110204529562,
    "ads": 9932.2678125,
    "market": null,
    "overlap": 0,
    "overlap_names": [],
    "channel": null,
    "dist": null
  },
  {
    "sid": "SHBS61",
    "name": "上海缤谷广场2店",
    "brand": "Baker & Spice",
    "city": "上海市",
    "addr": "上海市长宁区天山路341号缤谷文化休闲广场1期第1幢第116单元",
    "fmt": "Shopping Mall",
    "lng": 121.3905218255902,
    "lat": 31.212934619980253,
    "ads": 12625.757031250003,
    "market": null,
    "overlap": 0,
    "overlap_names": [],
    "channel": null,
    "dist": null
  },
  {
    "sid": "CDW15",
    "name": "成都大悦城",
    "brand": "Wagas",
    "city": "成都市",
    "addr": "四川省成都市武侯区大悦路518号成都大悦城购物中心1F-063A号商铺",
    "fmt": "Shopping Mall",
    "lng": 104.01354887220334,
    "lat": 30.622423619631583,
    "ads": 14924.713593750004,
    "market": null,
    "overlap": 0,
    "overlap_names": [],
    "channel": null,
    "dist": null
  },
  {
    "sid": "SUZBS3",
    "name": "苏州仓街",
    "brand": "Baker & Spice",
    "city": "苏州市",
    "addr": "江苏省苏州市姑苏区仓街1号仓街商业广场项目4号楼第G层161号商铺",
    "fmt": "Shopping Mall",
    "lng": 120.64385862159703,
    "lat": 31.30952531623772,
    "ads": 7517.61265625,
    "market": null,
    "overlap": 0,
    "overlap_names": [],
    "channel": null,
    "dist": null
  },
  {
    "sid": "BJBS18",
    "name": "北京朝阳大悦城BS",
    "brand": "Baker & Spice",
    "city": "北京市",
    "addr": "北京市朝阳区朝阳北路99号楼1层01号G133-135",
    "fmt": "Shopping Mall",
    "lng": 116.52627628038186,
    "lat": 39.925376693811934,
    "ads": 15149.085468749998,
    "market": null,
    "overlap": 0,
    "overlap_names": [],
    "channel": null,
    "dist": null
  },
  {
    "sid": "SZW22",
    "name": "深圳睿印RAIL IN",
    "brand": "Wagas",
    "city": "深圳市",
    "addr": "广东省深圳市南山区深湾汇云中心四期G座睿印商场B2层B218- B113号",
    "fmt": "Shopping Mall",
    "lng": 113.9754680145712,
    "lat": 22.521190563879372,
    "ads": 10200.729843750003,
    "market": null,
    "overlap": 0,
    "overlap_names": [],
    "channel": null,
    "dist": null
  },
  {
    "sid": "SHLK15",
    "name": "上海东湖宾馆LK",
    "brand": "Lokal",
    "city": "上海市",
    "addr": "上海市徐汇区东湖路7号东湖宾馆6号楼南侧二层商铺",
    "fmt": "Street-front",
    "lng": 121.45905642275258,
    "lat": 31.213947863525146,
    "ads": 20568.757031249996,
    "market": null,
    "overlap": 0,
    "overlap_names": [],
    "channel": null,
    "dist": null
  },
  {
    "sid": "CDBS3",
    "name": "成都万象城",
    "brand": "Baker & Spice",
    "city": "成都市",
    "addr": "成都市成华区双庆路8号1栋1层1号L149",
    "fmt": "Shopping Mall",
    "lng": 104.11787826722671,
    "lat": 30.647301373920005,
    "ads": 14879.520312499999,
    "market": null,
    "overlap": 0,
    "overlap_names": [],
    "channel": null,
    "dist": null
  },
  {
    "sid": "WXW5",
    "name": "无锡滨湖万象汇",
    "brand": "Wagas",
    "city": "无锡市",
    "addr": "江苏省无锡市滨湖区太湖大道1688号无锡滨湖万象汇L143号商铺",
    "fmt": "Shopping Mall",
    "lng": 120.26568301121519,
    "lat": 31.539755978537315,
    "ads": 10206.682187500006,
    "market": null,
    "overlap": 0,
    "overlap_names": [],
    "channel": null,
    "dist": null
  },
  {
    "sid": "BJBS21",
    "name": "北京王府中环店1",
    "brand": "Baker & Spice",
    "city": "北京市",
    "addr": "北京市东城区王府井大街269号院1号楼B1层-132b号商铺",
    "fmt": "Shopping Mall",
    "lng": 116.41482393246883,
    "lat": 39.91371944975266,
    "ads": 18644.11125,
    "market": null,
    "overlap": 0,
    "overlap_names": [],
    "channel": null,
    "dist": null
  },
  {
    "sid": "CDW14",
    "name": "成都明日巴适",
    "brand": "Wagas",
    "city": "成都市",
    "addr": "四川省成都市高新区明日巴适项目1层L101号",
    "fmt": "Office/BusinessPark",
    "lng": 104.08219678596474,
    "lat": 30.51193629519927,
    "ads": 9141.902343750002,
    "market": null,
    "overlap": 0,
    "overlap_names": [],
    "channel": null,
    "dist": null
  },
  {
    "sid": "SHW122",
    "name": "上海叠纸",
    "brand": "Wagas",
    "city": "上海市",
    "addr": "上海市杨浦区淞沪路635号1F 105、106室",
    "fmt": "Office/BusinessPark",
    "lng": 121.51314926001149,
    "lat": 31.307926033228142,
    "ads": 14387.023606557377,
    "market": null,
    "overlap": 0,
    "overlap_names": [],
    "channel": null,
    "dist": null
  },
  {
    "sid": "BJBS16",
    "name": "北京老佛爷",
    "brand": "Baker & Spice",
    "city": "北京市",
    "addr": "北京市西城区西单北大街110号的巴黎老佛爷百货L1-1.17&W1.8 号",
    "fmt": "Shopping Mall",
    "lng": 116.38120968220016,
    "lat": 39.91564744191289,
    "ads": 23549.90736842106,
    "market": null,
    "overlap": 0,
    "overlap_names": [],
    "channel": null,
    "dist": null
  },
  {
    "sid": "NJW10",
    "name": "南京绿地紫峰购物广场",
    "brand": "Wagas",
    "city": "南京市",
    "addr": "南京市中山北路6号绿地中心紫峰购物广场1层B01商铺",
    "fmt": "Shopping Mall",
    "lng": 118.78835470225683,
    "lat": 32.05877282797398,
    "ads": 13434.642031250001,
    "market": null,
    "overlap": 0,
    "overlap_names": [],
    "channel": null,
    "dist": null
  },
  {
    "sid": "SHW108",
    "name": "上海万象企业中心",
    "brand": "Wagas",
    "city": "上海市",
    "addr": "上海市闵行区号文路217号MT1栋106室",
    "fmt": "Office/BusinessPark",
    "lng": 121.3586666798807,
    "lat": 31.161787313331637,
    "ads": 11201.920624999992,
    "market": null,
    "overlap": 0,
    "overlap_names": [],
    "channel": null,
    "dist": null
  },
  {
    "sid": "SHW24",
    "name": "上海番禺路",
    "brand": "Wagas",
    "city": "上海市",
    "addr": "上海市长宁区番禺路483号",
    "fmt": "Street-front",
    "lng": 121.4341986985801,
    "lat": 31.202987381296314,
    "ads": 16914.059218749993,
    "market": null,
    "overlap": 0,
    "overlap_names": [],
    "channel": null,
    "dist": null
  },
  {
    "sid": "SHW84",
    "name": "上海凌空soho",
    "brand": "Wagas",
    "city": "上海市",
    "addr": "上海市长宁区金钟路968号天会商务广场6号楼103B楼",
    "fmt": "Office/BusinessPark",
    "lng": 121.35745941987481,
    "lat": 31.22001404271741,
    "ads": 12005.968444444447,
    "market": null,
    "overlap": 0,
    "overlap_names": [],
    "channel": null,
    "dist": null
  },
  {
    "sid": "SHBS25",
    "name": "上海会德丰国际广场店",
    "brand": "Baker & Spice",
    "city": "上海市",
    "addr": "上海静安区南京西路1717号南院首层101号商铺",
    "fmt": "Office/BusinessPark",
    "lng": 121.44949408961608,
    "lat": 31.21994402865197,
    "ads": 28657.850468749995,
    "market": null,
    "overlap": 0,
    "overlap_names": [],
    "channel": null,
    "dist": null
  },
  {
    "sid": "BJW26",
    "name": "北京新辰里店",
    "brand": "Wagas",
    "city": "北京市",
    "addr": "北京市朝阳区北辰东路8号院新辰里购物中心1层",
    "fmt": "Shopping Mall",
    "lng": 116.41298088367179,
    "lat": 39.99304305939579,
    "ads": 11844.3578125,
    "market": null,
    "overlap": 0,
    "overlap_names": [],
    "channel": null,
    "dist": null
  },
  {
    "sid": "SHBS32",
    "name": "上海淮海路1877",
    "brand": "Baker & Spice",
    "city": "上海市",
    "addr": "上海市淮海中路1877号-1879号底层2铺",
    "fmt": "Street-front",
    "lng": 121.44297289849987,
    "lat": 31.202014647263454,
    "ads": 18765.034687500003,
    "market": null,
    "overlap": 0,
    "overlap_names": [],
    "channel": null,
    "dist": null
  },
  {
    "sid": "GZW8",
    "name": "广州黄埔大悦汇店",
    "brand": "Wagas",
    "city": "广州市",
    "addr": "广东省广州市黄埔大悦汇购物中心46号101-18、101-19号商铺",
    "fmt": "Shopping Mall",
    "lng": 113.43560661817459,
    "lat": 23.162285591380023,
    "ads": 18345.963906250006,
    "market": null,
    "overlap": 0,
    "overlap_names": [],
    "channel": null,
    "dist": null
  },
  {
    "sid": "CDW9",
    "name": "成都西宸龙湖",
    "brand": "Wagas",
    "city": "成都市",
    "addr": "成都市金牛区花照壁西顺街399号A馆-1F-01",
    "fmt": "Shopping Mall",
    "lng": 104.03500018177998,
    "lat": 30.69549099906378,
    "ads": 13588.551718749997,
    "market": null,
    "overlap": 0,
    "overlap_names": [],
    "channel": null,
    "dist": null
  },
  {
    "sid": "SHW89",
    "name": "上海东方广场",
    "brand": "Wagas",
    "city": "上海市",
    "addr": "上海市浦东新区东育路636号1层",
    "fmt": "Office/BusinessPark",
    "lng": 121.48785530666171,
    "lat": 31.148886529962247,
    "ads": 12722.492343749998,
    "market": null,
    "overlap": 0,
    "overlap_names": [],
    "channel": null,
    "dist": null
  },
  {
    "sid": "SHW6",
    "name": "上海宏伊国际广场",
    "brand": "Wagas",
    "city": "上海市",
    "addr": "上海市黄浦区九江路288号一层",
    "fmt": "Shopping Mall",
    "lng": 121.4891153963241,
    "lat": 31.234731165812104,
    "ads": 16719.019375000003,
    "market": null,
    "overlap": 0,
    "overlap_names": [],
    "channel": null,
    "dist": null
  },
  {
    "sid": "CDW2",
    "name": "成都来福士",
    "brand": "Wagas",
    "city": "成都市",
    "addr": "四川省成都市武侯区人民南路四段3号来福士广场02层02号",
    "fmt": "Shopping Mall",
    "lng": 104.06999187837211,
    "lat": 30.629615984497264,
    "ads": 10366.686406249999,
    "market": null,
    "overlap": 0,
    "overlap_names": [],
    "channel": null,
    "dist": null
  },
  {
    "sid": "CDW6",
    "name": "成都银泰",
    "brand": "Wagas",
    "city": "成都市",
    "addr": "四川省成都市高新区天府大道北段1199号L1层L121a室铺位",
    "fmt": "Shopping Mall",
    "lng": 104.07172881646295,
    "lat": 30.583076049416377,
    "ads": 10107.904531249998,
    "market": null,
    "overlap": 0,
    "overlap_names": [],
    "channel": null,
    "dist": null
  },
  {
    "sid": "SHBS39",
    "name": "上海徐汇绿地缤纷城",
    "brand": "Baker & Spice",
    "city": "上海市",
    "addr": "上海市徐汇区瑞平路76号徐汇绿地缤纷城1层WG-103房屋",
    "fmt": "Shopping Mall",
    "lng": 121.46166656208734,
    "lat": 31.181237039342413,
    "ads": 12388.713125000006,
    "market": null,
    "overlap": 0,
    "overlap_names": [],
    "channel": null,
    "dist": null
  },
  {
    "sid": "SHW81",
    "name": "上海前滩企业天地店",
    "brand": "Wagas",
    "city": "上海市",
    "addr": "上海自由贸易试验区东育路255弄2号1层101单元",
    "fmt": "Office/BusinessPark",
    "lng": 121.48602622592273,
    "lat": 31.155716383110445,
    "ads": 14486.395901639338,
    "market": null,
    "overlap": 0,
    "overlap_names": [],
    "channel": null,
    "dist": null
  },
  {
    "sid": "SHW91",
    "name": "上海飞洲国际",
    "brand": "Wagas",
    "city": "上海市",
    "addr": "上海市徐汇区零陵路899号1层107-108铺位",
    "fmt": "Shopping Mall",
    "lng": 121.4426037647932,
    "lat": 31.18129099883755,
    "ads": 12793.807656250003,
    "market": null,
    "overlap": 0,
    "overlap_names": [],
    "channel": null,
    "dist": null
  },
  {
    "sid": "BJW54",
    "name": "北京西三旗店",
    "brand": "Wagas",
    "city": "北京市",
    "addr": "北京市海淀区西三旗建材城东路33号院1号楼L120",
    "fmt": "Shopping Mall",
    "lng": 116.37184964407346,
    "lat": 40.06149526009519,
    "ads": 8884.465625,
    "market": null,
    "overlap": 0,
    "overlap_names": [],
    "channel": null,
    "dist": null
  },
  {
    "sid": "SHBS10",
    "name": "上海长宁来福士店",
    "brand": "Baker & Spice",
    "city": "上海市",
    "addr": "上海市长宁路1123号长宁来福士广场E01层16-17号商铺",
    "fmt": "Shopping Mall",
    "lng": 121.41945742123836,
    "lat": 31.214670970985807,
    "ads": 15515.682968750001,
    "market": null,
    "overlap": 0,
    "overlap_names": [],
    "channel": null,
    "dist": null
  },
  {
    "sid": "WHW2",
    "name": "武汉壹方天地",
    "brand": "Wagas",
    "city": "武汉市",
    "addr": "武汉市江岸区中山大道 1515 号 1 层商 25 单元(1-25)",
    "fmt": "Shopping Mall",
    "lng": 114.31652436505232,
    "lat": 30.608364263102963,
    "ads": 9581.084218750002,
    "market": null,
    "overlap": 0,
    "overlap_names": [],
    "channel": null,
    "dist": null
  },
  {
    "sid": "HZW5",
    "name": "杭州阿里巴巴店",
    "brand": "Wagas",
    "city": "杭州市",
    "addr": "杭州市余杭区文一西路961号亲橙里6号楼1层6-16室",
    "fmt": "Shopping Mall",
    "lng": 120.0350707031791,
    "lat": 30.279045109573577,
    "ads": 13052.345156249996,
    "market": null,
    "overlap": 0,
    "overlap_names": [],
    "channel": null,
    "dist": null
  },
  {
    "sid": "SHLK8",
    "name": "上海瑞虹太阳宫",
    "brand": "Lokal",
    "city": "上海市",
    "addr": "上海市虹口区瑞虹路181号L1-14单元",
    "fmt": "Shopping Mall",
    "lng": 121.50456426758494,
    "lat": 31.26049251886249,
    "ads": 19004.219687499997,
    "market": null,
    "overlap": 0,
    "overlap_names": [],
    "channel": null,
    "dist": null
  },