{"超级碗": [{"name": "超级碗 FOODBOWL(成都软件园店)", "lng": 104.070961, "lat": 30.548238, "addr": "世纪城路1129号A区9栋1层111号", "city": "成都市", "district": "武侯区", "rating": "4.3"}, {"name": "超级碗FOODBOWL(银泰IN99店)", "lng": 104.069673, "lat": 30.584403, "addr": "天府大道北段1199号成都银泰中心in99负一楼32号", "city": "成都市", "district": "武侯区", "rating": "4.1"}, {"name": "超级碗FOODBOWL(高新智谷店)", "lng": 104.056538, "lat": 30.535986, "addr": "益州大道中段1886号", "city": "成都市", "district": "武侯区", "rating": "3.7"}, {"name": "超级碗 FOODBOWL(成都来福士店)", "lng": 104.067655, "lat": 30.631906, "addr": "来福士广场负二楼B258", "city": "成都市", "district": "武侯区", "rating": "4.2"}, {"name": "超级碗FOODBOWL(仁恒置地广场店)", "lng": 104.067625, "lat": 30.652125, "addr": "人民南路二段1号1栋4层16号", "city": "成都市", "district": "锦江区", "rating": "4.2"}, {"name": "超级碗 FOODBOWL(成都中鼎店)", "lng": 104.091265, "lat": 30.590842, "addr": "新希望中鼎国际中鼎316街区6-1-16项目", "city": "成都市", "district": "锦江区", "rating": "4.2"}, {"name": "超级碗FOODBOWL(成都悠方店)", "lng": 104.058776, "lat": 30.583068, "addr": "交子大道悠方负一层", "city": "成都市", "district": "武侯区", "rating": "4.3"}, {"name": "超级碗 FOODBOWL(成都高新创合中心店)", "lng": 104.061665, "lat": 30.557952, "addr": "吉瑞二路188号2栋1层122号", "city": "成都市", "district": "武侯区", "rating": "4.3"}, {"name": "超级碗FOODBOWL(成都IFS店)", "lng": 104.081665, "lat": 30.654247, "addr": "红星路三段一号国际金融中心地下一层LG121B商铺", "city": "成都市", "district": "锦江区", "rating": "4.3"}, {"name": "超级碗 FOODBOWL(成都环贸ICD店)", "lng": 104.114233, "lat": 30.63299, "addr": "东大路577号环贸icd负二层B226号超级碗", "city": "成都市", "district": "锦江区", "rating": "4.2"}, {"name": "超级碗FOODBOWL(成都万象城店)", "lng": 104.115053, "lat": 30.649168, "addr": "万象城A馆5楼", "city": "成都市", "district": "成华区", "rating": "4.3"}, {"name": "喜赞超级碗健康轻食(九眼桥店)", "lng": 104.084428, "lat": 30.635517, "addr": "共和村5号1栋2层23号", "city": "成都市", "district": "武侯区", "rating": "4.2"}, {"name": "成都超级碗高空酒店(环球中心店)", "lng": 104.071213, "lat": 30.575253, "addr": "桂溪街道天府大道北段1777号招商玺荟4栋47楼19号", "city": "成都市", "district": "武侯区", "rating": ""}, {"name": "喜赞·超级碗健康轻食(尚品奥莱广场店)", "lng": 103.998175, "lat": 30.620825, "addr": "聚龙路988号尚品广场B1层", "city": "成都市", "district": "武侯区", "rating": "3.4"}, {"name": "喜赞·超级碗健康轻食(航空港店)", "lng": 104.005175, "lat": 30.573125, "addr": "珠江路与临港路四段交叉口西北320米", "city": "成都市", "district": "双流区", "rating": "3.5"}, {"name": "四川超级碗餐饮服务有限公司成都高新第三分公司", "lng": 104.065925, "lat": 30.592225, "addr": "天府大道北段18号高新国际广场A座", "city": "成都市", "district": "武侯区", "rating": ""}, {"name": "喜赞·超级碗健康轻食(郫筒店)", "lng": 103.899325, "lat": 30.797675, "addr": "杜鹃路84号汉正广场F1层", "city": "成都市", "district": "郫都区", "rating": "3.9"}, {"name": "喜赞·超级碗健康轻食(双流店)", "lng": 103.909185, "lat": 30.577244, "addr": "东升街道金河路三段257号附357号", "city": "成都市", "district": "双流区", "rating": "3.8"}, {"name": "喜赞·超级碗健康轻食", "lng": 103.833058, "lat": 30.686747, "addr": "双柳二街与双柳一巷交叉口西20米", "city": "成都市", "district": "温江区", "rating": "3.6"}, {"name": "超级碗FOODBOWL(外滩SOHO店)", "lng": 121.493425, "lat": 31.230125, "addr": "新开河北路10号外滩SOHOB1层", "city": "上海市", "district": "黄浦区", "rating": "4.0"}, {"name": "超级碗FOODBOWL(中信泰富广场店)", "lng": 121.455825, "lat": 31.228304, "addr": "南京西路1168号中信泰富广场B1层B09室", "city": "上海市", "district": "静安区", "rating": "4.3"}, {"name": "超级碗FOODBOWL(长宁来福士店)", "lng": 121.41532, "lat": 31.216759, "addr": "长宁路1123号上海长宁来福士广场B1-25A", "city": "上海市", "district": "长宁区", "rating": "3.9"}, {"name": "超级碗 FOODBOWL(上海1788广场店)", "lng": 121.443844, "lat": 31.222735, "addr": "南京西路1788号1788广场B1层", "city": "上海市", "district": "静安区", "rating": "4.2"}, {"name": "超级碗 FOODBOWL(上海星荟中心店)", "lng": 121.486725, "lat": 31.245925, "addr": "北外滩街道上海星荟中心1号楼B1层B1-01", "city": "上海市", "district": "虹口区", "rating": "4.1"}, {"name": "超级碗FOODBOWL(上海环宇荟店)", "lng": 121.476129, "lat": 31.21157, "addr": "打浦桥街道马当路中海环宇荟商场内B1层B155室", "city": "上海市", "district": "黄浦区", "rating": "4.1"}, {"name": "超级碗FOODBOWL(花旗集团大厦店)", "lng": 121.500664, "lat": 31.234051, "addr": "花园石桥路33号02室2楼201室", "city": "上海市", "district": "浦东新区", "rating": "4.1"}, {"name": "超级碗FOODBOWL(上海大宁中心广场店)", "lng": 121.440174, "lat": 31.280493, "addr": "彭浦镇灵石路718号D5栋102", "city": "上海市", "district": "静安区", "rating": "4.3"}, {"name": "超级碗 FOODBOWL(上海东方万国企业中心店)", "lng": 121.621775, "lat": 31.256275, "addr": "新金桥路1599号东方万国企业中心E1楼B2层210号", "city": "上海市", "district": "浦东新区", "rating": "4.2"}, {"name": "超级碗FOODBOWL(上海达邦协作广场店)", "lng": 121.455239, "lat": 31.244354, "addr": "恒丰路399号达邦协作广场1层106号", "city": "上海市", "district": "静安区", "rating": "4.1"}, {"name": "超级碗 FOODBOWL(上海尚悦湾店)", "lng": 121.510225, "lat": 31.240875, "addr": "银城路滨江金融城尚悦湾广场LG层110室", "city": "上海市", "district": "浦东新区", "rating": "4.1"}, {"name": "超级碗 FOODBOWL(上海徐汇ITC一期店)", "lng": 121.438126, "lat": 31.197938, "addr": "华山路1901号ONE ITC大楼LG2层243室", "city": "上海市", "district": "徐汇区", "rating": "4.3"}, {"name": "超级碗FOODBOWL(上海华鑫慧享城店)", "lng": 121.407142, "lat": 31.170167, "addr": "田林路200号A6栋105", "city": "上海市", "district": "徐汇区", "rating": "4.3"}, {"name": "超级碗FOODBOWL(北外滩来福士店)", "lng": 121.507065, "lat": 31.252508, "addr": "东大名路999号北外滩来福士B2层49号(来福小镇内)", "city": "上海市", "district": "虹口区", "rating": "4.0"}, {"name": "超级碗 FOODBOWL(尚嘉中心店)", "lng": 121.407135, "lat": 31.205686, "addr": "天山路街道仙霞路99号尚嘉中心LG115B室", "city": "上海市", "district": "长宁区", "rating": "3.8"}, {"name": "超级碗 FOODBOWL(上海长风大悦城店)", "lng": 121.39543, "lat": 31.222697, "addr": "大渡河路196号长风大悦城B1-15中国黄金旁", "city": "上海市", "district": "普陀区", "rating": "3.7"}, {"name": "超级碗FOODBOWL(上海世纪金融广场店)", "lng": 121.535197, "lat": 31.212826, "addr": "杨高南路759号陆家嘴世纪金融广场2号楼L204A", "city": "上海市", "district": "浦东新区", "rating": "4.2"}, {"name": "超级碗 FOODBOWL(上海太平洋森活天地店)", "lng": 121.513472, "lat": 31.303104, "addr": "淞沪路199号B1层太平洋森活天地D-1近12号口", "city": "上海市", "district": "杨浦区", "rating": "4.2"}, {"name": "超级碗 FOODBOWL(上海传媒港花园里店)", "lng": 121.461079, "lat": 31.160433, "addr": "龙爱路58号传媒港花园里B1E15室", "city": "上海市", "district": "徐汇区", "rating": "4.3"}, {"name": "超级碗FOODBOWL(汇智国际商业中心店)", "lng": 121.601677, "lat": 31.203438, "addr": "金科路3057号汇智国际商业中心B1层", "city": "上海市", "district": "浦东新区", "rating": "4.1"}, {"name": "超级碗 FOODBOWL(上海互联宝地店)", "lng": 121.526775, "lat": 31.272025, "addr": "黄兴路221号互联宝地负一楼", "city": "上海市", "district": "杨浦区", "rating": "4.0"}, {"name": "超级碗 FOODBOWL(上海丁香国际广场店)", "lng": 121.551325, "lat": 31.225175, "addr": "丁香国际中心B1层LG109-2", "city": "上海市", "district": "浦东新区", "rating": "4.2"}, {"name": "超级碗 FOODBOWL(前滩陆悦汇店)(暂停营业)", "lng": 121.481225, "lat": 31.158925, "addr": "东育路195号陆悦汇F1层", "city": "上海市", "district": "浦东新区", "rating": "4.2"}, {"name": "超级碗FOODBOWL(上海虹桥万科店)", "lng": 121.315375, "lat": 31.196475, "addr": "华漕镇申长路988弄9号虹桥万科中心地下2层33号", "city": "上海市", "district": "闵行区", "rating": "4.1"}, {"name": "超级碗 FOODBOWL(凯德闵行商业中心店)", "lng": 121.378286, "lat": 31.107786, "addr": "凯德闵行商业中心(一楼38号)", "city": "上海市", "district": "闵行区", "rating": "4.2"}, {"name": "超级碗 FOODBOWL(漕河泾科技绿洲4期店)", "lng": 121.389324, "lat": 31.16316, "addr": "田林路889号4期2幢1层107室", "city": "上海市", "district": "闵行区", "rating": "4.0"}, {"name": "超级碗FOODBOWL(七宝宝龙城店)", "lng": 121.354825, "lat": 31.159175, "addr": "七宝镇漕宝路3299弄20号地下1层96室", "city": "上海市", "district": "闵行区", "rating": "4.0"}, {"name": "超级碗 FOODBOWL(江湾里MEET678店)", "lng": 121.507624, "lat": 31.315362, "addr": "民府路678号抖音新江湾广场T2栋1楼02室", "city": "上海市", "district": "杨浦区", "rating": "4.3"}, {"name": "FOODBOWL超级碗(宝山新业坊店)", "lng": 121.484577, "lat": 31.319109, "addr": "逸仙路1328号(殷高西路地铁站1号入口步行100米)", "city": "上海市", "district": "宝山区", "rating": "3.8"}, {"name": "FOODBOWL超级碗(新天地店)", "lng": 121.474093, "lat": 31.222804, "addr": "淮海中路瑞安广场新天地333号b2-34", "city": "上海市", "district": "黄浦区", "rating": "4.4"}, {"name": "FOODBOWL超级碗(博荟广场店)", "lng": 121.480203, "lat": 31.196871, "addr": "博荟广场地下二层B2-28A,B2-28E", "city": "上海市", "district": "黄浦区", "rating": "4.1"}, {"name": "超级碗(凌空SOHO店)", "lng": 121.351476, "lat": 31.222682, "addr": "新泾镇金钟路968号11号楼107室", "city": "上海市", "district": "长宁区", "rating": "4.1"}, {"name": "超级碗FOODBOWL(IFC国金天地店)", "lng": 113.32342, "lat": 23.118437, "addr": "珠江西路5号国金天地B1-110a(港九对面)", "city": "广州市", "district": "天河区", "rating": "4.1"}, {"name": "超级碗 FOODBOWL(西直门凯德店)", "lng": 116.353047, "lat": 39.941155, "addr": "北京城区西直门外大街1号凯德MALL5层05-16(扶梯口旁)", "city": "北京市", "district": "西城区", "rating": "4.3"}, {"name": "超级碗 FOODBOWL(乐成中心店)", "lng": 116.462675, "lat": 39.894276, "addr": "北京城区东三环中路20号乐成中心Space3B1-09号", "city": "北京市", "district": "朝阳区", "rating": "4.2"}, {"name": "超级碗 FOODBOWL(新中关店)", "lng": 116.3162, "lat": 39.978259, "addr": "中关村大街新中关购物中心B1层", "city": "北京市", "district": "海淀区", "rating": "4.3"}, {"name": "超级碗 FOODBOWL(天虹商场店)", "lng": 116.341507, "lat": 39.888587, "addr": "北京城区广安门天虹1层101内090号", "city": "北京市", "district": "西城区", "rating": "4.3"}, {"name": "超级碗 FOODBOWL(银泰IN88店)", "lng": 116.411459, "lat": 39.916186, "addr": "王府井大街88号1栋地下一层B1020-1、1020-2号", "city": "北京市", "district": "东城区", "rating": "4.3"}, {"name": "超级碗FOODBOWL(银泰IN01店)", "lng": 116.458174, "lat": 39.907309, "addr": "北京城区建国门外大街银泰中心in01地下1层B6号", "city": "北京市", "district": "朝阳区", "rating": "4.1"}, {"name": "超级碗 FOODBOWL(通州万达店)", "lng": 116.638569, "lat": 39.905168, "addr": "北京城区新华西街60号院万达广场A座B1层CB1015号", "city": "北京市", "district": "通州区", "rating": "4.3"}, {"name": "超级碗 FOODBOWL(FFC店)", "lng": 116.460363, "lat": 39.917824, "addr": "北京城区财富金融中心7号院5号FFC大厦B1层(近扶梯)", "city": "北京市", "district": "朝阳区", "rating": "4.1"}, {"name": "FOODBOWL超级碗(亚运村北辰荟店)", "lng": 116.387753, "lat": 40.003208, "addr": "北辰西路6号院北辰荟B1层", "city": "北京市", "district": "朝阳区", "rating": "4.2"}, {"name": "超级碗FOODBOWL(金融街中心店)", "lng": 116.359525, "lat": 39.919675, "addr": "北京城区金融街中心9号二层", "city": "北京市", "district": "西城区", "rating": "4.2"}, {"name": "FOODBOWL超级碗(启迪科技大厦D座店)", "lng": 116.331155, "lat": 39.993294, "addr": "东升镇中关村东路1号院8号楼D座B1层103室", "city": "北京市", "district": "海淀区", "rating": "4.3"}, {"name": "超级碗FOODBOWL(环贸中心店)", "lng": 116.410884, "lat": 39.96629, "addr": "北京城区北三环东路36号环球贸易中心E座负一层FOODBOWL超级碗", "city": "北京市", "district": "东城区", "rating": "4.2"}, {"name": "超级碗 FOODBOWL(达美店)", "lng": 116.516418, "lat": 39.936834, "addr": "北京城区青年路7号院100幢达美中心T2-B1层-120号", "city": "北京市", "district": "朝阳区", "rating": "4.1"}, {"name": "超级碗 FOODBOWL(雍和宫店)", "lng": 116.422352, "lat": 39.950818, "addr": "北京城区原航星园超市", "city": "北京市", "district": "东城区", "rating": "4.2"}, {"name": "超级碗 FOODBOWL(爱工场天空大厦店)", "lng": 116.481175, "lat": 39.886025, "addr": "北京城区西大望路27号爱工场科技文化产业园W1号楼101室", "city": "北京市", "district": "朝阳区", "rating": "4.3"}, {"name": "超级碗FOODBOWL(科技财富中心店)", "lng": 116.353461, "lat": 40.016176, "addr": "北京城区学清路8号1层103A号", "city": "北京市", "district": "海淀区", "rating": "4.2"}, {"name": "超级碗FOODBOWL(石榴中心店)", "lng": 116.423366, "lat": 39.8414, "addr": "石榴庄路1号石榴中心11号楼1楼11-1-04", "city": "北京市", "district": "丰台区", "rating": "4.3"}, {"name": "超级碗(国瑞城店)", "lng": 116.419934, "lat": 39.898142, "addr": "崇文门外街道崇文门外大街18号国瑞购物中心地下一层", "city": "北京市", "district": "东城区", "rating": "4.2"}, {"name": "FOODBOWL超级碗(快手元中心店)", "lng": 116.3157, "lat": 40.049658, "addr": "快手元中心7号楼B1扶手电梯左后方", "city": "北京市", "district": "海淀区", "rating": "3.4"}, {"name": "超级碗 FOODBOWL(凤凰汇店)", "lng": 116.45646, "lat": 39.962312, "addr": "凤凰汇购物中心负1楼", "city": "北京市", "district": "朝阳区", "rating": "4.2"}, {"name": "FOODBOWL超级碗(来广营阿里巴巴店)", "lng": 116.489716, "lat": 40.022812, "addr": "来广营东路146号阿里巴巴总部B区一层", "city": "北京市", "district": "朝阳区", "rating": "4.1"}, {"name": "超级碗FOODBOWL(恒基伟业大厦店)", "lng": 116.48786, "lat": 40.008564, "addr": "北京城区屏翠东路4号恒基伟业大厦C座一层", "city": "北京市", "district": "朝阳区", "rating": "4.2"}, {"name": "超级碗(中海环宇荟店)", "lng": 116.406125, "lat": 39.978125, "addr": "安定路5号院北京安贞环宇荟B1层", "city": "北京市", "district": "朝阳区", "rating": "4.2"}, {"name": "超级碗 FOODBOWL(融新科技中心店)", "lng": 116.467771, "lat": 40.021979, "addr": "北京城区创远路34号院融新科技中心H座二楼", "city": "北京市", "district": "朝阳区", "rating": "4.2"}, {"name": "超级碗 FOODBOWL(能量城市店)", "lng": 116.28077, "lat": 39.95327, "addr": "四季青地区板井路69号能量城市负二层超级碗", "city": "北京市", "district": "海淀区", "rating": "4.3"}, {"name": "超级碗FOODBOWL(丽泽平安幸福汇店)", "lng": 116.322335, "lat": 39.86659, "addr": "丽泽路24号院-平安幸福中心B1层南门处", "city": "北京市", "district": "丰台区", "rating": "4.0"}, {"name": "超级碗(金地中心店)", "lng": 116.474944, "lat": 39.909153, "addr": "建国路91号金地中心B1层B116b号", "city": "北京市", "district": "朝阳区", "rating": "4.2"}, {"name": "超级碗 FOODBOWL(汉威国际广场店)", "lng": 116.296373, "lat": 39.823533, "addr": "北京城区丰台科技园地铁汉威国际广场3区4号楼", "city": "北京市", "district": "丰台区", "rating": "4.4"}, {"name": "超级碗 FOODBOWL(天虹商场店)", "lng": 116.34821, "lat": 39.894688, "addr": "北京城区广安门天虹1层101内090号", "city": "北京市", "district": "西城区", "rating": "3.7"}, {"name": "超级碗(恒通UBP店)", "lng": 116.49403, "lat": 39.979065, "addr": "恒通商务园B53栋(高家园地铁站B口步行410米)", "city": "北京市", "district": "朝阳区", "rating": "4.3"}, {"name": "超级碗FOODBOWL(金隅智造店)", "lng": 116.35958, "lat": 40.057041, "addr": "北京城区建材城中路27号金隅智造工场13幢一层1108号", "city": "北京市", "district": "海淀区", "rating": "4.3"}, {"name": "超级碗(远洋未来汇店)", "lng": 116.492096, "lat": 39.916129, "addr": "慈云寺北里210号远洋未来汇购物中心B1层CBF1-25-26", "city": "北京市", "district": "朝阳区", "rating": "4.0"}, {"name": "超级碗(金唐新光界店)", "lng": 116.305181, "lat": 39.866172, "addr": "丰台北路18号金唐新光界L5层(西局地铁站G东南口旁)", "city": "北京市", "district": "丰台区", "rating": "4.3"}, {"name": "超级碗(悦食里店)", "lng": 116.472782, "lat": 39.993139, "addr": "首开广场B1层悦食里(阜通地铁站B1西北口步行150m)", "city": "北京市", "district": "朝阳区", "rating": "4.1"}, {"name": "超级碗(悠唐店)", "lng": 116.439404, "lat": 39.921906, "addr": "朝外街道悠唐购物中心B1层1期B02号", "city": "北京市", "district": "朝阳区", "rating": "4.1"}, {"name": "超级碗FOODBOWL(北广金融科技中心)", "lng": 116.384547, "lat": 39.963475, "addr": "北广·金融科技中心,北京市西城区黄寺大街甲23号院-1号北广大厦1层商场内", "city": "北京市", "district": "西城区", "rating": "3.9"}, {"name": "超级碗(光耀东方店)", "lng": 116.321935, "lat": 39.899029, "addr": "羊坊店街道羊坊店路18号2幢1层102", "city": "北京市", "district": "海淀区", "rating": "4.1"}, {"name": "超级碗(石景山万达店)", "lng": 116.225152, "lat": 39.906141, "addr": "鲁谷街道石景山路乙18号院4号楼2F-2051", "city": "北京市", "district": "石景山区", "rating": "4.2"}, {"name": "超级碗(凯德MALL·大峡谷店)", "lng": 116.366852, "lat": 39.854606, "addr": "南三环西路16号凯德MALL·大峡谷F4层(东1门进入直行30m,扶梯上到F4可见)", "city": "北京市", "district": "丰台区", "rating": "4.1"}, {"name": "超级碗(盈科中心店)", "lng": 116.459155, "lat": 39.9329, "addr": "工人体育场北甲2号地下部分-01层B101单元", "city": "北京市", "district": "朝阳区", "rating": "4.3"}, {"name": "超级碗(IFC店)", "lng": 116.453327, "lat": 39.907452, "addr": "建国门外大街甲8号B1层(永安里地铁站B2南口步行210米)", "city": "北京市", "district": "朝阳区", "rating": "4.1"}, {"name": "超级碗(华贸店)", "lng": 116.479728, "lat": 39.909179, "addr": "建国路81号华贸购物中心B1层B105", "city": "北京市", "district": "朝阳区", "rating": "4.2"}, {"name": "超级碗(建外环宇荟店)", "lng": 116.456736, "lat": 39.910863, "addr": "建外环宇荟地下一层B1-07", "city": "北京市", "district": "朝阳区", "rating": "4.0"}, {"name": "超级碗(庄胜广场店)", "lng": 116.375372, "lat": 39.897585, "addr": "宣武门大街8号崇光百货宣武门店B1层", "city": "北京市", "district": "西城区", "rating": "4.1"}, {"name": "超级碗(北京来福士店)", "lng": 116.432464, "lat": 39.94036, "addr": "东直门南大街1-1来福士B1层(东直门地铁站D西南口旁)", "city": "北京市", "district": "东城区", "rating": "4.2"}, {"name": "超级碗(永利国际店)", "lng": 116.444793, "lat": 39.934473, "addr": "工人体育场北路21号永利国际中心爱奇艺青春中心1F层", "city": "北京市", "district": "朝阳区", "rating": "4.2"}, {"name": "超级碗(技术交易大厦店)", "lng": 116.307785, "lat": 39.983945, "addr": "海淀街道北四环西路66号中国技术交易大厦B1层", "city": "北京市", "district": "海淀区", "rating": "4.2"}, {"name": "超级碗(翠微百货店)", "lng": 116.305502, "lat": 39.908289, "addr": "复兴路33号翠微百货B座B1层", "city": "北京市", "district": "海淀区", "rating": "4.1"}, {"name": "超级碗(金融街购物中心店)", "lng": 116.362341, "lat": 39.915807, "addr": "金融街购物中心1期中国体育彩票", "city": "北京市", "district": "西城区", "rating": "4.2"}, {"name": "超级碗(鼎成中心店)", "lng": 116.434281, "lat": 40.000144, "addr": "小营北路15号院1号楼(关庄地铁站B东北口步行380米)", "city": "北京市", "district": "朝阳区", "rating": "4.4"}, {"name": "超级碗(1733店)", "lng": 116.343093, "lat": 39.966353, "addr": "1733商业街B1层-17-1", "city": "北京市", "district": "海淀区", "rating": "4.1"}, {"name": "超级碗(辉煌国际店)", "lng": 116.300459, "lat": 40.052594, "addr": "上地十街1号院6号楼1层103室", "city": "北京市", "district": "海淀区", "rating": "4.4"}, {"name": "超级碗(国锐金嵿店)", "lng": 116.509019, "lat": 39.791241, "addr": "荣华南路1号", "city": "北京市", "district": "大兴区", "rating": "4.4"}, {"name": "超级碗(中关村软件园店)", "lng": 116.288229, "lat": 40.046514, "addr": "西北旺路57号中关村软件园乐食宝街F1-10", "city": "北京市", "district": "海淀区", "rating": "4.2"}, {"name": "超级碗(腾达大厦店)", "lng": 116.32667, "lat": 39.938039, "addr": "西直门外大街168号腾达大厦二层超级碗", "city": "北京市", "district": "海淀区", "rating": "4.2"}, {"name": "超级碗(IT产业园店)", "lng": 116.506706, "lat": 39.986828, "addr": "北京城区酒仙桥北路甲10号院301号楼101", "city": "北京市", "district": "朝阳区", "rating": "4.3"}, {"name": "超级碗(东升科技园店)", "lng": 116.356331, "lat": 40.04701, "addr": "西小口路66号中关村东升科技园北领地B-6号楼B座B08C室", "city": "北京市", "district": "海淀区", "rating": "4.2"}, {"name": "超级碗(金隅嘉华店)", "lng": 116.307894, "lat": 40.036061, "addr": "上地三街9号金隅嘉华大厦A座一层临街", "city": "北京市", "district": "海淀区", "rating": "4.2"}, {"name": "超级碗(龙湖蓝海店)", "lng": 116.438375, "lat": 40.028525, "addr": "北京城区红军营东路6号", "city": "北京市", "district": "朝阳区", "rating": "4.3"}, {"name": "超级碗(暖山店)", "lng": 116.415542, "lat": 40.032181, "addr": "北京城区红军营南路36号暖山生活广场B1-18-3", "city": "北京市", "district": "朝阳区", "rating": "4.3"}, {"name": "超级碗(小米北京总部店)", "lng": 116.318051, "lat": 40.048589, "addr": "西二旗中路33号院小米科技园G栋一层", "city": "北京市", "district": "海淀区", "rating": "4.2"}, {"name": "超级碗(君康人寿店)", "lng": 116.491699, "lat": 39.999835, "addr": "北京城区望京东园四区1号楼富泽人寿大厦B1层", "city": "北京市", "district": "朝阳区", "rating": "4.1"}, {"name": "超级碗FOODBOWL(魏公芳华里店)", "lng": 116.320175, "lat": 39.956275, "addr": "魏公村斜街7号院地下2层B2-21", "city": "北京市", "district": "海淀区", "rating": "4.1"}, {"name": "超级碗FOODBOWL(地王星荟店)", "lng": 114.109987, "lat": 22.542734, "addr": "深南东路5002号深圳地王购物中心B1层", "city": "深圳市", "district": "罗湖区", "rating": "4.1"}, {"name": "超级碗FOODBOWL(中航君尚店)", "lng": 114.082966, "lat": 22.543238, "addr": "华强北街道华航社区华富路1018号中航城君尚购物中心B1层B107", "city": "深圳市", "district": "福田区", "rating": "3.6"}, {"name": "超级碗FOODBOWL(深业上城店)", "lng": 114.071025, "lat": 22.557175, "addr": "华富街道莲花一村社区皇岗路5001号深业上城(南区)商业综合楼B1层MA-14号", "city": "深圳市", "district": "福田区", "rating": "3.8"}, {"name": "超级碗FOODBOWL(汉京金融中心店)", "lng": 113.936555, "lat": 22.540475, "addr": "深南大道9968号汉京金融中心L106-1", "city": "深圳市", "district": "南山区", "rating": "4.0"}, {"name": "FOODBOWL超级碗", "lng": 114.055669, "lat": 22.533175, "addr": "PA MALL平安金融中心地下一层25号", "city": "深圳市", "district": "福田区", "rating": "4.3"}, {"name": "FOODBOWL超级碗(天安云谷店)", "lng": 114.066577, "lat": 22.659274, "addr": "坂田街道岗头社区天安云谷产业园二期(02-08地块)11栋半地下114", "city": "深圳市", "district": "龙岗区", "rating": "3.9"}, {"name": "超级碗 FOODBOWL(深圳湾万象城店)", "lng": 113.94576, "lat": 22.515325, "addr": "粤海街道海德一道1218号深圳湾万象城二期A区B1层B183号", "city": "深圳市", "district": "南山区", "rating": "4.3"}, {"name": "超级碗(滨海云中心店)", "lng": 114.025825, "lat": 22.529975, "addr": "沙头街道天安社区泰然八路3号万科滨海置地大厦B1层11", "city": "深圳市", "district": "福田区", "rating": "4.0"}, {"name": "超级碗FOODBOWL(杭州来福士店)", "lng": 120.213457, "lat": 30.248622, "addr": "新业路228号杭州来福士中心B1层", "city": "杭州市", "district": "上城区", "rating": "4.4"}, {"name": "超级碗 FOODBOWL(杭州博地中心店)", "lng": 120.252463, "lat": 30.235948, "addr": "博地中心(盈丰路地铁站C口步行190米)", "city": "杭州市", "district": "萧山区", "rating": "4.2"}, {"name": "FOODBOWL超级碗(杭州滨江银泰百货店)", "lng": 120.22375, "lat": 30.201399, "addr": "西兴街道滨和路518号海威商务中心3幢101-9室", "city": "杭州市", "district": "滨江区", "rating": "4.4"}, {"name": "超级碗 FOODBOWL(杭州西湖EAC店)", "lng": 120.137515, "lat": 30.273106, "addr": "西溪街道教工路18号欧美中心1号楼C区105室", "city": "杭州市", "district": "西湖区", "rating": "4.4"}, {"name": "超级碗 FOODBOWL(杭州余杭EFC欧美中心店)", "lng": 120.002691, "lat": 30.280772, "addr": "景兴路欧美中心A区896-36号-215-216(A区大中庭2楼)", "city": "杭州市", "district": "余杭区", "rating": "4.5"}, {"name": "超级碗轻餐", "lng": 120.150525, "lat": 30.182025, "addr": "东信大道1038号江涛阁", "city": "杭州市", "district": "滨江区", "rating": "3.5"}, {"name": "超级碗女子健身工作室", "lng": 120.02366, "lat": 30.358124, "addr": "良渚街道良渚文化村白鹭郡南56幢1单元305室", "city": "杭州市", "district": "余杭区", "rating": "4.4"}, {"name": "超级碗辣炒木桶饭", "lng": 120.299725, "lat": 30.458975, "addr": "东湖北路与亭望街交叉口东南120米", "city": "杭州市", "district": "临平区", "rating": "1.9"}, {"name": "喜赞·超级碗健康轻食", "lng": 108.968314, "lat": 34.271937, "addr": "东六路与公社巷交叉口西40米", "city": "西安市", "district": "新城区", "rating": "4.0"}, {"name": "FOODBOWL超级碗(交大店)", "lng": 106.311125, "lat": 29.413675, "addr": "福城大道与福星大道交叉口东100米", "city": "重庆市", "district": "江津区", "rating": "1.7"}, {"name": "超级碗美食城", "lng": 106.606399, "lat": 29.535804, "addr": "崇文路78号附8号", "city": "重庆市", "district": "南岸区", "rating": "2.7"}, {"name": "超级碗美食城", "lng": 106.537925, "lat": 29.461525, "addr": "李石路与李康路交叉口东南160米", "city": "重庆市", "district": "巴南区", "rating": "2.1"}, {"name": "sevenmango茫七·超级碗(武商MALL店)", "lng": 114.270426, "lat": 30.579629, "addr": "解放大道690号武商MALLa1座7楼", "city": "武汉市", "district": "江汉区", "rating": "3.9"}, {"name": "瓦坎达超级碗·轻食咖啡(金桥店)", "lng": 114.284275, "lat": 30.628575, "addr": "中一路8号石桥花园淌湖苑", "city": "武汉市", "district": "江岸区", "rating": "3.5"}, {"name": "SUPER BOWL超级碗(市南店)", "lng": 120.399108, "lat": 36.0659, "addr": "香港中路65号丙-1号太古广场步行街", "city": "青岛市", "district": "市南区", "rating": "4.6"}, {"name": "SUPER BOWL超级碗(大鲍岛店)", "lng": 120.322158, "lat": 36.071399, "addr": "即墨路街道芝罘路63号1层R4103", "city": "青岛市", "district": "市北区", "rating": "4.6"}, {"name": "SUPER BOWL超级碗(崂山丽达店)", "lng": 120.469547, "lat": 36.103444, "addr": "秦岭路18号丽达购物中心西区二楼", "city": "青岛市", "district": "崂山区", "rating": "4.6"}], "星巴克": [{"name": "星巴克(苏州狮山龙湖天街店)", "lng": 120.556713, "lat": 31.295024, "addr": "塔园路181号龙湖狮山天街1层", "city": "苏州市", "district": "虎丘区", "rating": "4.7"}, {"name": "星巴克咖啡(苏州体育中心店)", "lng": 120.581989, "lat": 31.295593, "addr": "三香路与网船巷交叉口南120米", "city": "苏州市", "district": "姑苏区", "rating": "4.6"}, {"name": "星巴克臻选(苏州龙湖东吴天街店)", "lng": 120.628819, "lat": 31.25341, "addr": "东吴南路179号龙湖苏州东吴天街A区1F层A-1F-41", "city": "苏州市", "district": "吴中区", "rating": "4.6"}, {"name": "星巴克(苏州星海店)", "lng": 120.670184, "lat": 31.315967, "addr": "吴中区工业园区星海街199号B1层B106-B108星巴克咖啡", "city": "苏州市", "district": "吴中区", "rating": "4.5"}, {"name": "星巴克(苏州万象天地店)", "lng": 120.598624, "lat": 31.31007, "addr": "金阊街道枫桥路36号苏州万象天地L1层(2号门附近)", "city": "苏州市", "district": "姑苏区", "rating": "4.5"}, {"name": "星巴克(苏州石路国际商城店)", "lng": 120.601983, "lat": 31.31216, "addr": "石路步行街18号国际购物中心1层1001号", "city": "苏州市", "district": "姑苏区", "rating": "4.6"}, {"name": "星巴克(苏州逸扉店)", "lng": 120.603582, "lat": 31.309839, "addr": "阊胥路345号101室(石路地铁站9号口步行340米)", "city": "苏州市", "district": "姑苏区", "rating": "4.6"}, {"name": "星巴克(苏州太阳广场店)", "lng": 120.601041, "lat": 31.313072, "addr": "石路步行街太阳广场88号一楼", "city": "苏州市", "district": "姑苏区", "rating": "4.6"}, {"name": "星巴克(十全街店)", "lng": 120.631544, "lat": 31.298674, "addr": "十全街625号", "city": "苏州市", "district": "姑苏区", "rating": "4.6"}, {"name": "星巴克(苏州观前街1号店)", "lng": 120.628164, "lat": 31.311131, "addr": "观前街1-53号(悬桥巷地铁站出入口步行360米)", "city": "苏州市", "district": "姑苏区", "rating": "4.7"}, {"name": "星巴克臻选苏州狮山金融创新中心店", "lng": 120.57265, "lat": 31.284151, "addr": "滨河路418号", "city": "苏州市", "district": "虎丘区", "rating": "4.6"}, {"name": "星巴克(苏州金鹰店)", "lng": 120.550964, "lat": 31.293282, "addr": "狮山路298号苏州高新金鹰商业广场1层1-03单元", "city": "苏州市", "district": "虎丘区", "rating": "4.6"}, {"name": "星巴克(苏州拙政园店)", "lng": 120.63126, "lat": 31.323468, "addr": "东北街168号A组6室", "city": "苏州市", "district": "姑苏区", "rating": "4.7"}, {"name": "星巴克(苏州吴中万达广场店)", "lng": 120.606442, "lat": 31.253314, "addr": "石湖西路188号吴中万达广场1楼", "city": "苏州市", "district": "吴中区", "rating": "4.6"}, {"name": "星巴克(苏州苏新乐荟横塘店)", "lng": 120.58029, "lat": 31.2687, "addr": "鸿运街与迎宾路交叉口东40米", "city": "苏州市", "district": "虎丘区", "rating": "4.5"}, {"name": "星巴克(苏州凤凰街店)", "lng": 120.632498, "lat": 31.302621, "addr": "凤凰街148号02单元", "city": "苏州市", "district": "姑苏区", "rating": "4.6"}, {"name": "星巴克臻选(苏州泉屋店)", "lng": 120.549045, "lat": 31.283187, "addr": "狮山街道高新区长江路211号泉屋百货1楼1i-01单元(近美罗)", "city": "苏州市", "district": "虎丘区", "rating": "4.6"}, {"name": "星巴克(苏州平江路店)", "lng": 120.634666, "lat": 31.310387, "addr": "平江路20号(临顿路地铁站5号口步行410米)", "city": "苏州市", "district": "姑苏区", "rating": "4.6"}, {"name": "星巴克(苏州中润店)", "lng": 120.632218, "lat": 31.266411, "addr": "宝带东路399号丽丰广场1F", "city": "苏州市", "district": "吴中区", "rating": "4.6"}, {"name": "星巴克(苏州国际科技园店)", "lng": 120.666895, "lat": 31.296158, "addr": "金鸡湖大道1355号国际科技园四期B0101-01单元", "city": "苏州市", "district": "吴中区", "rating": "4.6"}, {"name": "星巴克(印象城店)", "lng": 120.656609, "lat": 31.316877, "addr": "现代大道1699号印象城三楼03-01e03-014d单元", "city": "苏州市", "district": "吴中区", "rating": "4.5"}, {"name": "星巴克(苏州长江壹号店)", "lng": 120.5545, "lat": 31.263663, "addr": "长江路9号长江壹号生活广场1F路边", "city": "苏州市", "district": "吴中区", "rating": "4.7"}, {"name": "星巴克(苏州绿宝广场店)", "lng": 120.548953, "lat": 31.30187, "addr": "长江路436号(绿宝广场1F)", "city": "苏州市", "district": "虎丘区", "rating": "4.6"}, {"name": "星巴克(津西新天地店)", "lng": 120.553202, "lat": 31.307223, "addr": "塔园路233号苏州津西新天地1层1001单元", "city": "苏州市", "district": "虎丘区", "rating": "4.7"}, {"name": "星巴克(世茂广场店)", "lng": 120.596764, "lat": 31.264241, "addr": "宝带西路1177号苏州世茂生活广场6号楼第一层6-1-1号商铺区", "city": "苏州市", "district": "姑苏区", "rating": "4.7"}, {"name": "星巴克(苏州人民商场店)", "lng": 120.624556, "lat": 31.309886, "addr": "北局22号苏州人民商场1F层", "city": "苏州市", "district": "姑苏区", "rating": "4.5"}, {"name": "星巴克(苏州相城天虹店)", "lng": 120.638341, "lat": 31.369175, "addr": "相城大道1168号近地铁2号线天虹购物中心(苏州相城店)A区L1层", "city": "苏州市", "district": "相城区", "rating": "4.7"}, {"name": "星巴克臻选(苏州科文中心店)", "lng": 120.703358, "lat": 31.320534, "addr": "观枫街1号苏州科技文化艺术中心103商铺", "city": "苏州市", "district": "吴中区", "rating": "4.7"}, {"name": "星巴克臻选(苏州吴江万象汇店)", "lng": 120.616185, "lat": 31.135845, "addr": "开平路2299号(苏州湾东地铁站2号东南口旁)", "city": "苏州市", "district": "吴江区", "rating": "4.5"}, {"name": "星巴克(苏州中心3F店)", "lng": 120.678391, "lat": 31.318274, "addr": "苏州市工业园区星港街西苏州中心北区广场5幢三层A-号03-32单元", "city": "苏州市", "district": "吴中区", "rating": "4.6"}, {"name": "星巴克臻选(苏州大悦城店)", "lng": 120.607805, "lat": 31.400801, "addr": "御窑路1999号大悦城L1-01", "city": "苏州市", "district": "相城区", "rating": "4.6"}, {"name": "星巴克(平江MALL店)", "lng": 120.603466, "lat": 31.3428, "addr": "平江街道广济北路788号摩尔广场一楼", "city": "苏州市", "district": "姑苏区", "rating": "4.7"}, {"name": "星巴克苏州平江万达广场店", "lng": 120.613958, "lat": 31.342849, "addr": "人民路3188号1层18幢商铺92铺位号", "city": "苏州市", "district": "姑苏区", "rating": "4.6"}, {"name": "星巴克(汇豪国际店)", "lng": 120.56755, "lat": 31.294377, "addr": "新区狮山路58号汇豪国际1-2f", "city": "苏州市", "district": "虎丘区", "rating": "4.6"}, {"name": "星巴克臻选(苏州相城龙湖天街店)", "lng": 120.636862, "lat": 31.371334, "addr": "相城大道1399号龙湖苏州相城天街F1层", "city": "苏州市", "district": "相城区", "rating": "4.6"}, {"name": "星巴克(苏州塔韵路店)", "lng": 120.595363, "lat": 31.215736, "addr": "塔韵路199号绿景佐阾越溪购物中心F1层", "city": "苏州市", "district": "吴中区", "rating": "4.6"}, {"name": "星巴克(惠丰里店)", "lng": 120.681326, "lat": 31.266282, "addr": "东方大道1088号17号楼1-01单元", "city": "苏州市", "district": "吴中区", "rating": "4.6"}, {"name": "星巴克(金鸡湖店)", "lng": 120.682179, "lat": 31.316293, "addr": "星港街158号湖滨新天地103-1商铺", "city": "苏州市", "district": "吴中区", "rating": "4.7"}, {"name": "星巴克(苏州浒关浅湾店)", "lng": 120.511134, "lat": 31.373682, "addr": "桑园路9号浒关浅湾1号楼1层", "city": "苏州市", "district": "虎丘区", "rating": "4.6"}, {"name": "星巴克(悠方店)", "lng": 120.528719, "lat": 31.274651, "addr": "木渎镇金枫路264号1F101区", "city": "苏州市", "district": "吴中区", "rating": "4.7"}, {"name": "星巴克(苏州火车站到达层店)", "lng": 120.611277, "lat": 31.329283, "addr": "苏锦街道苏站路27号苏州火车站北广场负一层", "city": "苏州市", "district": "姑苏区", "rating": "4.5"}, {"name": "星巴克(慕斯广场店)", "lng": 120.606265, "lat": 31.304891, "addr": "阊胥路388号浩力大厦号101铺位", "city": "苏州市", "district": "姑苏区", "rating": "4.4"}, {"name": "星巴克(南岸新地店)", "lng": 120.674069, "lat": 31.333581, "addr": "苏州工业园区扬富路南岸新地商场1层", "city": "苏州市", "district": "虎丘区", "rating": "4.6"}, {"name": "星巴克(苏州胥涛路仁恒店)", "lng": 120.591192, "lat": 31.287037, "addr": "胥涛路123号、125号-A", "city": "苏州市", "district": "姑苏区", "rating": "4.6"}, {"name": "星巴克(苏州万科美好店)", "lng": 120.653447, "lat": 31.305455, "addr": "东环路194号", "city": "苏州市", "district": "虎丘区", "rating": "4.6"}, {"name": "星巴克(复悦城店)", "lng": 120.546228, "lat": 31.353587, "addr": "虎池路1583号复悦活力城1层1F-47", "city": "苏州市", "district": "姑苏区", "rating": "4.5"}, {"name": "星巴克(国际影视娱乐城店)", "lng": 120.517286, "lat": 31.278342, "addr": "金山南路288号苏州国际影视娱乐城4层", "city": "苏州市", "district": "吴中区", "rating": "4.6"}, {"name": "星巴克(苏州欧尚店)", "lng": 120.658132, "lat": 31.305053, "addr": "金鸡湖路205号欧尚1层", "city": "苏州市", "district": "吴中区", "rating": "4.6"}, {"name": "星巴克(干将路店)", "lng": 120.637253, "lat": 31.309165, "addr": "干将东路461号(幔扉酒店旁)", "city": "苏州市", "district": "姑苏区", "rating": "4.6"}, {"name": "星巴克(苏州产业园店)", "lng": 120.774783, "lat": 31.308648, "addr": "东长路88号", "city": "苏州市", "district": "吴中区", "rating": "4.7"}, {"name": "星巴克(CFS假日广场店)(装修中)", "lng": 120.629858, "lat": 31.312508, "addr": "临顿路101-141号1-30单元", "city": "苏州市", "district": "姑苏区", "rating": "4.5"}, {"name": "星巴克(信投大厦店)", "lng": 120.669653, "lat": 31.317119, "addr": "苏雅路308号信投大厦1幢101单元", "city": "苏州市", "district": "吴中区", "rating": "4.7"}, {"name": "星巴克臻选苏州中心1F店", "lng": 120.677247, "lat": 31.31582, "addr": "苏州市工业园区星港街西苏州中心广场3幢一层B-号01-32单元和二层B-号02-30单元", "city": "苏州市", "district": "吴中区", "rating": "4.7"}, {"name": "星巴克(阳澄湖中路店)", "lng": 120.635635, "lat": 31.365255, "addr": "阳澄湖中路99号苏州星云汇生活广场1层L01-031-A单元", "city": "苏州市", "district": "相城区", "rating": "4.6"}, {"name": "星巴克(苏州城邦花园店)", "lng": 120.681151, "lat": 31.292682, "addr": "苏州工业园区高和路67号298幢103室", "city": "苏州市", "district": "吴中区", "rating": "4.7"}, {"name": "星巴克(苏州中心6F店)", "lng": 120.677135, "lat": 31.315856, "addr": "星港街西苏州中心广场3幢六层B-06-16单元", "city": "苏州市", "district": "吴中区", "rating": "4.5"}, {"name": "星巴克(苏信店)", "lng": 120.675171, "lat": 31.306468, "addr": "中新大道西88号苏信大厦1幢1层102室", "city": "苏州市", "district": "吴中区", "rating": "4.7"}, {"name": "星巴克(苏州港龙城市广场店)", "lng": 120.546821, "lat": 31.312493, "addr": "长江路556号港龙城市广场1f", "city": "苏州市", "district": "虎丘区", "rating": "4.7"}, {"name": "星巴克(绿宝步行街店)", "lng": 120.550763, "lat": 31.299704, "addr": "长江路436号绿宝广场1层2幢1027室(招商银行旁)", "city": "苏州市", "district": "虎丘区", "rating": "4.6"}, {"name": "星巴克(首开龙湖苏州胥江天街北馆店)", "lng": 120.597532, "lat": 31.291696, "addr": "劳动路777号首开龙湖苏州胥江天街北馆1F层A-1F-09", "city": "苏州市", "district": "姑苏区", "rating": "4.5"}, {"name": "星巴克(艾美广场店)", "lng": 120.601215, "lat": 31.305772, "addr": "广济南路18号艾美广场一层", "city": "苏州市", "district": "姑苏区", "rating": "4.6"}, {"name": "星巴克(苏州山塘街店)", "lng": 120.603583, "lat": 31.316216, "addr": "山塘街北浩弄5号", "city": "苏州市", "district": "姑苏区", "rating": "4.6"}, {"name": "星巴克(锦华苑店)", "lng": 120.564155, "lat": 31.294071, "addr": "狮山路100号锦华商业中心1层A区GF01室", "city": "苏州市", "district": "虎丘区", "rating": "4.6"}, {"name": "星巴克(市立医院店)", "lng": 120.620516, "lat": 31.301143, "addr": "道前街26号", "city": "苏州市", "district": "姑苏区", "rating": "4.6"}, {"name": "星巴克苏州坤元广场店", "lng": 120.620592, "lat": 31.313387, "addr": "人民路1543号第一层101单元", "city": "苏州市", "district": "姑苏区", "rating": "4.5"}, {"name": "星巴克臻选(苏州欢乐颂店)", "lng": 120.741204, "lat": 31.315029, "addr": "津梁街172号华润万家购物中心F1层", "city": "苏州市", "district": "吴中区", "rating": "4.6"}, {"name": "星巴克(苏州科技城锦峰店)", "lng": 120.436625, "lat": 31.329881, "addr": "锦峰路199号第1层的105-2单元", "city": "苏州市", "district": "虎丘区", "rating": "4.7"}, {"name": "星巴克专星送(苏州狮山名门店)", "lng": 120.555828, "lat": 31.300504, "addr": "高新区塔园路201号苏州名门易生活广场1层1063、1064、1067、1068单元", "city": "苏州市", "district": "虎丘区", "rating": "4.7"}, {"name": "星巴克(苏州致远大厦店)", "lng": 120.424146, "lat": 31.338266, "addr": "科发路101号致远大厦北楼1楼", "city": "苏州市", "district": "虎丘区", "rating": "4.6"}, {"name": "星巴克臻选(苏州龙湖星湖天街店)", "lng": 120.722923, "lat": 31.37258, "addr": "亭谊街38号龙湖苏州星湖天街A座1F层A-1F-01", "city": "苏州市", "district": "吴中区", "rating": "4.6"}, {"name": "星巴克(苏州观前街食品商场店)", "lng": 120.621562, "lat": 31.311015, "addr": "观前街246-260号", "city": "苏州市", "district": "姑苏区", "rating": "4.5"}, {"name": "星巴克(建屋购物中心店)", "lng": 120.724402, "lat": 31.265204, "addr": "苏州工业园区八达街181号地上第一层的L106单元", "city": "苏州市", "district": "虎丘区", "rating": "4.6"}, {"name": "星巴克(海星生活广场店)", "lng": 120.631262, "lat": 31.25515, "addr": "商城大街88号海星生活广场01-02单元", "city": "苏州市", "district": "吴中区", "rating": "4.7"}, {"name": "星巴克臻选(苏州时代广场店)", "lng": 120.714086, "lat": 31.320909, "addr": "旺墩路268号时代广场N6区域D栋1楼104号", "city": "苏州市", "district": "吴中区", "rating": "4.7"}, {"name": "星巴克(苏州繁花中心店)", "lng": 120.607417, "lat": 31.361314, "addr": "人民路4555号苏州繁花中心一层1001-4单元", "city": "苏州市", "district": "相城区", "rating": "4.7"}, {"name": "星巴克(双湖邻里店)", "lng": 120.672199, "lat": 31.283682, "addr": "企鸿路18号独墅湖大道双湖广场1-123单元", "city": "苏州市", "district": "虎丘区", "rating": "4.6"}, {"name": "星巴克(环球188广场店)", "lng": 120.670157, "lat": 31.31364, "addr": "苏惠路88号环球188购物中心F1层3幢101室108单元", "city": "苏州市", "district": "吴中区", "rating": "4.6"}, {"name": "星巴克(鲜橙广场)", "lng": 120.730433, "lat": 31.259949, "addr": "苏州工业园区星湖街218号4幢101A单元", "city": "苏州市", "district": "虎丘区", "rating": "4.7"}, {"name": "星巴克(苏州北站店)", "lng": 120.644184, "lat": 31.421071, "addr": "北河泾街道南天成路苏州北站商业街SZB-JQ-03B号", "city": "苏州市", "district": "相城区", "rating": "4.7"}, {"name": "星巴克(苏州星湖街店)", "lng": 120.724208, "lat": 31.291606, "addr": "仁恒parkA座底商102室", "city": "苏州市", "district": "吴中区", "rating": "4.7"}, {"name": "星巴克(苏州吴江又一城店)", "lng": 120.657019, "lat": 31.140018, "addr": "开平路180号", "city": "苏州市", "district": "吴江区", "rating": "4.6"}, {"name": "星巴克(苏州吴江天虹店)", "lng": 120.644135, "lat": 31.14471, "addr": "文苑路和中山南路交叉口天虹购物中心(吴江店)1层", "city": "苏州市", "district": "吴江区", "rating": "4.5"}, {"name": "星巴克(苏州奥体中心店)", "lng": 120.745711, "lat": 31.308119, "addr": "中新大道东999号一楼03单元", "city": "苏州市", "district": "吴中区", "rating": "4.6"}, {"name": "星巴克(苏州吴江X广场店)", "lng": 120.639701, "lat": 31.162757, "addr": "松陵镇永康路388号1018单元", "city": "苏州市", "district": "吴江区", "rating": "4.5"}, {"name": "星巴克(相城欧尚店)", "lng": 120.622425, "lat": 31.352008, "addr": "齐门北大街228号苏州相城欧尚1F1001单元", "city": "苏州市", "district": "相城区", "rating": "4.6"}, {"name": "星巴克(苏州印象城1F苏州西蒙店冰激凌)", "lng": 120.65731, "lat": 31.318383, "addr": "现代大道1699号苏州印象城购物中心1025b商铺", "city": "苏州市", "district": "吴中区", "rating": "4.6"}, {"name": "星巴克(苏州吴中鲁能美成坊店)", "lng": 120.621087, "lat": 31.231037, "addr": "长桥街道美成坊39幢123室-A", "city": "苏州市", "district": "吴中区", "rating": "4.6"}, {"name": "星巴克(木渎天虹店)", "lng": 120.5184, "lat": 31.261954, "addr": "木渎镇金山南路3号永真商场1楼", "city": "苏州市", "district": "吴中区", "rating": "4.6"}, {"name": "星巴克(胥城大厦店)", "lng": 120.598627, "lat": 31.298325, "addr": "三香路333号胥城大厦一楼", "city": "苏州市", "district": "姑苏区", "rating": "4.4"}, {"name": "星巴克(中银惠龙大厦店)", "lng": 120.673041, "lat": 31.316142, "addr": "苏州工业园区苏州大道西8号中银惠龙大厦101-A", "city": "苏州市", "district": "吴中区", "rating": "4.7"}, {"name": "星巴克(苏州城市生活广场店)", "lng": 120.610565, "lat": 31.343671, "addr": "苏锦街道平泷路251号苏州城市生活广场B座1楼", "city": "苏州市", "district": "姑苏区", "rating": "4.7"}, {"name": "星巴克(东吴·乐享汇店)", "lng": 120.627385, "lat": 31.271792, "addr": "东吴北路111号东吴乐享汇1楼", "city": "苏州市", "district": "吴中区", "rating": "4.6"}, {"name": "星巴克咖啡(苏州仁恒仓街非遗概念店)", "lng": 120.639711, "lat": 31.310748, "addr": "仓街1号仓街商业广场1层G117商铺", "city": "苏州市", "district": "姑苏区", "rating": "4.5"}, {"name": "星巴克(苏州望亭禹洲商业广场店)", "lng": 120.449817, "lat": 31.423516, "addr": "光明街299号望亭商业广场一楼(KFC旁边)", "city": "苏州市", "district": "相城区", "rating": "4.6"}, {"name": "星巴克(李公堤店)", "lng": 120.688649, "lat": 31.30251, "addr": "李公堤路一期1区B2号", "city": "苏州市", "district": "吴中区", "rating": "4.7"}, {"name": "星巴克(水巷邻里店)", "lng": 120.682375, "lat": 31.300475, "addr": "金鸡湖街道水坊路36号水巷邻里B区01幢2楼", "city": "苏州市", "district": "吴中区", "rating": "4.7"}, {"name": "星巴克(苏州复悦荟店)", "lng": 120.578704, "lat": 31.377959, "addr": "永青路260号苏州复悦荟F1层", "city": "苏州市", "district": "相城区", "rating": "4.4"}, {"name": "星巴克(苏州越秀·悦汇时光店)", "lng": 120.520747, "lat": 31.369576, "addr": "惠昌路268号悦汇时光商业广场3号-C楼1F层Z106室CL101单元", "city": "苏州市", "district": "虎丘区", "rating": "4.5"}, {"name": "星巴克(新光天地店)", "lng": 120.711196, "lat": 31.32313, "addr": "苏州大道东456号新光天地B1层", "city": "苏州市", "district": "吴中区", "rating": "4.6"}, {"name": "星巴克臻选(苏州新光天地1F店)", "lng": 120.711225, "lat": 31.323175, "addr": "苏州工业园区苏州大道东456号新光天地1幢101室1020单元", "city": "苏州市", "district": "吴中区", "rating": "4.6"}, {"name": "星巴克(天虹百货店)", "lng": 120.665595, "lat": 31.315868, "addr": "苏雅路388号天虹商场B座F1层1014室", "city": "苏州市", "district": "吴中区", "rating": "4.7"}, {"name": "星巴克(金逸影视中心店)", "lng": 120.515883, "lat": 31.276812, "addr": "金山南路288号苏州金逸影视中心1层104-105商铺", "city": "苏州市", "district": "吴中区", "rating": "4.5"}, {"name": "星巴克(苏州斜塘老街店)", "lng": 120.734528, "lat": 31.304427, "addr": "松涛街1088号20楼第一层1-1单元", "city": "苏州市", "district": "吴中区", "rating": "4.7"}, {"name": "星巴克(苏州环贸广场ICC店)", "lng": 120.716625, "lat": 31.323125, "addr": "苏州大道东418号苏州环贸广场ICC F1层", "city": "苏州市", "district": "吴中区", "rating": "4.5"}, {"name": "星巴克臻选(苏州相城吾悦广场店)", "lng": 120.630957, "lat": 31.414484, "addr": "北河泾街道相城大道3188号(大湾地铁站1号口步行260米)吾悦广场(苏州高铁店)F1层(北1门附近)", "city": "苏州市", "district": "相城区", "rating": "4.6"}, {"name": "星巴克(南天成路店)", "lng": 120.637407, "lat": 31.421398, "addr": "南天成路111号圆融新生活广场1层的1240单元", "city": "苏州市", "district": "相城区", "rating": "4.7"}, {"name": "星巴克(苏州邵磨针巷店)", "lng": 120.624229, "lat": 31.30746, "addr": "观前街道宇龙楼邵磨针巷22号", "city": "苏州市", "district": "姑苏区", "rating": "4.6"}, {"name": "星巴克(苏州吴江吾悦广场店)", "lng": 120.616813, "lat": 31.137286, "addr": "开平路2188号新城吾悦广场F1层", "city": "苏州市", "district": "吴江区", "rating": "4.7"}, {"name": "星巴克(太湖中心Mall店)", "lng": 120.417358, "lat": 31.222421, "addr": "香山街道香山路16号540幢太湖中心L1层24单元MALL", "city": "苏州市", "district": "吴中区", "rating": "4.6"}, {"name": "星巴克(金茂苏州科技城丰茂里店)", "lng": 120.410667, "lat": 31.346108, "addr": "漓江路8号金茂苏州科技城丰茂里F1层", "city": "苏州市", "district": "虎丘区", "rating": "4.6"}, {"name": "星巴克(苏州高新文体中心店)", "lng": 120.419433, "lat": 31.33769, "addr": "太湖大道999号苏州高新区文体中心1F316单元", "city": "苏州市", "district": "虎丘区", "rating": "4.7"}, {"name": "星巴克(苏州创意产业园店)", "lng": 120.735749, "lat": 31.265562, "addr": "星湖街328号创意产业园五期综合1-108", "city": "苏州市", "district": "虎丘区", "rating": "4.7"}, {"name": "星巴克苏州泰华店", "lng": 120.624276, "lat": 31.2901, "addr": "人民路383号", "city": "苏州市", "district": "姑苏区", "rating": "4.6"}, {"name": "星巴克苏州宝龙广场店", "lng": 120.574346, "lat": 31.277859, "addr": "高新区滨河路337号高新区滨河路337号一层113、114单元", "city": "苏州市", "district": "虎丘区", "rating": "4.6"}, {"name": "星巴克(明基医院店)", "lng": 120.553139, "lat": 31.279463, "addr": "竹园路181号门诊大楼一楼西侧", "city": "苏州市", "district": "虎丘区", "rating": "4.2"}, {"name": "星巴克(苏州中翔时尚广场店)", "lng": 120.62137, "lat": 31.370326, "addr": "嘉元路与齐门北大街交口中翔时尚广场一楼", "city": "苏州市", "district": "相城区", "rating": "4.7"}, {"name": "星巴克(昆山亭林公园店)", "lng": 120.949495, "lat": 31.38834, "addr": "马鞍山东路88-1号", "city": "苏州市", "district": "昆山市", "rating": "4.6"}, {"name": "星巴克(时尚舞台店)", "lng": 120.822569, "lat": 31.339938, "addr": "苏州工业园区胜浦街道后戴街9号时尚舞台商城A区1112B", "city": "苏州市", "district": "吴中区", "rating": "4.7"}, {"name": "星巴克(百购商业广场店)", "lng": 120.64813, "lat": 31.3668, "addr": "阳澄湖东路99号百购广场1层", "city": "苏州市", "district": "相城区", "rating": "4.6"}, {"name": "星巴克(永旺梦乐城AEON店)", "lng": 120.530648, "lat": 31.369998, "addr": "城际路19号新区永旺梦乐城", "city": "苏州市", "district": "虎丘区", "rating": "4.6"}, {"name": "星巴克(竹园路店)", "lng": 120.538873, "lat": 31.276947, "addr": "竹园路209号苏州创业园1号楼1层C单元", "city": "苏州市", "district": "虎丘区", "rating": "4.7"}, {"name": "星巴克臻选(常熟美城广场店)", "lng": 120.754531, "lat": 31.671077, "addr": "海虞北路35号美城广场1-2层", "city": "苏州市", "district": "常熟市", "rating": "4.6"}, {"name": "星巴克(苏州胥口欢乐胥江广场店)", "lng": 120.48864, "lat": 31.235518, "addr": "腾胥路105号欢乐胥江广场1层101", "city": "苏州市", "district": "吴中区", "rating": "4.7"}, {"name": "星巴克(东校区苏州大学店)", "lng": 120.647107, "lat": 31.302403, "addr": "东环路50号苏州大学天赐庄东区学生宿舍-1号楼17-18号门面苏州大学天赐庄校区店", "city": "苏州市", "district": "姑苏区", "rating": "4.3"}, {"name": "星巴克(中海财富中心店)", "lng": 120.672492, "lat": 31.315375, "addr": "苏州大道西9号苏州中海财富中心3幢1层101单元", "city": "苏州市", "district": "吴中区", "rating": "4.7"}, {"name": "星巴克(吴中永旺梦乐城店)", "lng": 120.612329, "lat": 31.194049, "addr": "越溪街道苏震桃路188号永旺梦乐城1层", "city": "苏州市", "district": "吴中区", "rating": "4.7"}, {"name": "星巴克(苏州协鑫广场)", "lng": 120.714776, "lat": 31.324636, "addr": "苏州市工业园区思安街99号2幢103室", "city": "苏州市", "district": "吴中区", "rating": "4.6"}, {"name": "星巴克(苏州圆融星座店)", "lng": 120.714898, "lat": 31.31813, "addr": "苏州市工业园区旺墩路269号圆融星座广场", "city": "苏州市", "district": "吴中区", "rating": "4.5"}, {"name": "星巴克(苏州九龙医院店)", "lng": 120.727544, "lat": 31.330719, "addr": "万盛街118号12幢B1层九龙商业广场B106室", "city": "苏州市", "district": "吴中区", "rating": "4.5"}, {"name": "星巴克咖啡(新湖广场店)", "lng": 120.638191, "lat": 31.178448, "addr": "江陵西路1688号新湖广场F1层", "city": "苏州市", "district": "吴江区", "rating": "4.6"}, {"name": "星巴克(甄山苏新乐荟店)", "lng": 120.478306, "lat": 31.387275, "addr": "通安镇真山路123号苏新乐荟甄山店3楼305-1室", "city": "苏州市", "district": "虎丘区", "rating": "4.6"}, {"name": "星巴克(曼哈顿广场店)", "lng": 120.712151, "lat": 31.361416, "addr": "苏州工业园区唯华路5号君风生活广场5号楼3楼", "city": "苏州市", "district": "吴中区", "rating": "4.7"}, {"name": "星巴克(慧湖大厦店)", "lng": 120.724325, "lat": 31.262125, "addr": "月亮湾路10号慧湖大厦115-1单元", "city": "苏州市", "district": "虎丘区", "rating": "4.7"}, {"name": "星巴克(苏州腾飞创新园店)", "lng": 120.73489, "lat": 31.25442, "addr": "新平街388号22幢地上一层104单元铺位", "city": "苏州市", "district": "虎丘区", "rating": "4.5"}, {"name": "星巴克(文萃广场店)", "lng": 120.746106, "lat": 31.265078, "addr": "雪堂街8号110室一楼", "city": "苏州市", "district": "虎丘区", "rating": "4.7"}, {"name": "星巴克苏州站出发层店", "lng": 120.611434, "lat": 31.32923, "addr": "苏站路27号苏州站南站房2层候车厅东南平台东面区", "city": "苏州市", "district": "姑苏区", "rating": "4.4"}, {"name": "星巴克(苏州诚品店)", "lng": 120.710059, "lat": 31.320623, "addr": "苏州市园区右岸街诚品书店一楼", "city": "苏州市", "district": "吴中区", "rating": "4.7"}, {"name": "星巴克(张家港万达广场店)", "lng": 120.575449, "lat": 31.870458, "addr": "杨舍镇人民东路20号万达广场一层1号门门口位置", "city": "苏州市", "district": "张家港市", "rating": "4.6"}, {"name": "星巴克(玉山广场店)", "lng": 120.564877, "lat": 31.288811, "addr": "玉山路40号玉山广场1层的101单元,102单元", "city": "苏州市", "district": "虎丘区", "rating": "4.7"}, {"name": "星巴克(苏州尹山湖屿悦时光店)", "lng": 120.700703, "lat": 31.234223, "addr": "郭巷街道观澜逸品花苑10幢101室101号商铺", "city": "苏州市", "district": "吴中区", "rating": "4.6"}, {"name": "星巴克(苏州现代传媒广场店)", "lng": 120.734164, "lat": 31.324157, "addr": "苏州大道东265号101-102-103单元", "city": "苏州市", "district": "吴中区", "rating": "4.7"}, {"name": "星巴克(苏州昆山昆城广场店)", "lng": 120.953749, "lat": 31.363182, "addr": "玉山镇人民南路1188号昆城广场3号楼125单元", "city": "苏州市", "district": "昆山市", "rating": "4.7"}, {"name": "星巴克(苏州星悦里怡邻店)", "lng": 120.77869, "lat": 31.363512, "addr": "葑亭大道与戈巷街交叉口东100米", "city": "苏州市", "district": "吴中区", "rating": "4.6"}, {"name": "星巴克臻选(吴江万宝广场店)", "lng": 120.644409, "lat": 31.130256, "addr": "中山南路1088号万宝财富商业广场一楼", "city": "苏州市", "district": "吴江区", "rating": "4.6"}, {"name": "星巴克(苏州喜悦尚中心店)", "lng": 120.603285, "lat": 31.215716, "addr": "越溪街道南溪江路88号喜悦尚中心104单元", "city": "苏州市", "district": "吴中区", "rating": "4.6"}, {"name": "星巴克(永旺梦乐城店)", "lng": 120.757629, "lat": 31.323149, "addr": "苏州工业园区胜浦街道钟南街238号永旺梦乐城1层C区190A", "city": "苏州市", "district": "吴中区", "rating": "4.7"}, {"name": "星巴克(新江南大厦店)", "lng": 120.895659, "lat": 31.384745, "addr": "巴城镇祖冲之南路505号", "city": "苏州市", "district": "昆山市", "rating": "4.5"}, {"name": "星巴克(万科玲珑湾店)", "lng": 120.694907, "lat": 31.328923, "addr": "玲珑街1号玲珑湾46幢便名店1室", "city": "苏州市", "district": "吴中区", "rating": "4.7"}, {"name": "星巴克咖啡(苏州协鑫广场店)", "lng": 120.714343, "lat": 31.322892, "addr": "华池街88号星合广场", "city": "苏州市", "district": "吴中区", "rating": "4.5"}, {"name": "星巴克(苏州森林城家庭游乐区店)", "lng": 120.476051, "lat": 31.326251, "addr": "象山路99号乐园森林世界森林城家庭游乐区第1层的L117a单元", "city": "苏州市", "district": "虎丘区", "rating": "4.6"}, {"name": "星巴克(苏州吴江平望南大街店)", "lng": 120.643998, "lat": 30.975514, "addr": "平望镇南大街16号", "city": "苏州市", "district": "吴江区", "rating": "4.5"}, {"name": "星巴克(苏州久光百货店)", "lng": 120.714035, "lat": 31.319358, "addr": "旺墩路268号苏州久光百货1F层", "city": "苏州市", "district": "吴中区", "rating": "4.7"}, {"name": "星巴克咖啡(苏州邻瑞广场店)", "lng": 120.718416, "lat": 31.29724, "addr": "西华林街88号邻瑞广场1楼", "city": "苏州市", "district": "吴中区", "rating": "4.5"}, {"name": "星巴克咖啡(苏州吴江同里古镇店)", "lng": 120.719522, "lat": 31.157372, "addr": "明清街与中川路交叉口东南20米", "city": "苏州市", "district": "吴江区", "rating": "4.5"}, {"name": "星巴克(苏州渭塘镇珍珠湖路店)", "lng": 120.669418, "lat": 31.46651, "addr": "渭塘镇澄阳路2888号渭塘东方时代商业广场1幢125单元苏州渭塘镇珍珠湖路店", "city": "苏州市", "district": "相城区", "rating": "4.5"}, {"name": "星巴克(市民公园店)", "lng": 121.135125, "lat": 31.45599, "addr": "娄东街道上海东路123号民公园3号楼", "city": "苏州市", "district": "太仓市", "rating": "4.6"}, {"name": "星巴克臻选苏州歌林小镇L区店", "lng": 120.616262, "lat": 31.19033, "addr": "越溪吴郡路366号第三层的L315、L316单元", "city": "苏州市", "district": "吴中区", "rating": "4.5"}, {"name": "星巴克(景城邻里中心店)", "lng": 120.724892, "lat": 31.327202, "addr": "九华路65号景城邻里中心第1层118单元", "city": "苏州市", "district": "吴中区", "rating": "4.4"}, {"name": "星巴克(苏州尹山湖商业水街店)", "lng": 120.702262, "lat": 31.244022, "addr": "清禾路888号尹山湖歌林公园2111单元", "city": "苏州市", "district": "吴中区", "rating": "4.6"}, {"name": "星巴克(建屋店)", "lng": 120.722116, "lat": 31.320354, "addr": "旺墩路188号建屋大厦1楼大堂", "city": "苏州市", "district": "吴中区", "rating": "4.6"}, {"name": "星巴克(邻里商业广场店)", "lng": 120.701817, "lat": 31.430916, "addr": "兴太路35号太平邻里商业广场F104", "city": "苏州市", "district": "相城区", "rating": "4.6"}, {"name": "星巴克苏州科技城星悦里店", "lng": 120.437103, "lat": 31.344791, "addr": "天佑路9号星悦里L1层L134(5号门附近)", "city": "苏州市", "district": "虎丘区", "rating": "4.5"}, {"name": "星巴克(苏州相城仁恒四季和鸣店)", "lng": 120.598186, "lat": 31.397226, "addr": "文灵路2018号四季和鸣商业广场1幢108单元", "city": "苏州市", "district": "相城区", "rating": "4.6"}, {"name": "星巴克(瑞临广场店)", "lng": 120.498884, "lat": 31.161465, "addr": "瑞临广场", "city": "苏州市", "district": "吴中区", "rating": "4.5"}, {"name": "星巴克臻选(苏州昆山万象汇店)", "lng": 120.929327, "lat": 31.381142, "addr": "玉山镇前进西路1266号华润万象汇", "city": "苏州市", "district": "昆山市", "rating": "4.6"}, {"name": "星巴克(石路百脑汇店)", "lng": 120.600591, "lat": 31.310699, "addr": "广济南路258号石路百脑汇大厦第1层的1Y04单元,第2层的2Y06单元", "city": "苏州市", "district": "姑苏区", "rating": "4.6"}, {"name": "星巴克苏州星汇生活广场店", "lng": 120.707923, "lat": 31.329678, "addr": "苏州市工业园区和众街58号1F-01-a号单元", "city": "苏州市", "district": "吴中区", "rating": "4.7"}, {"name": "星巴克(星斓荟商业广场店)", "lng": 120.765839, "lat": 31.305263, "addr": "南榭雨街55号42号楼地上一层的C-114-1单元", "city": "苏州市", "district": "吴中区", "rating": "4.6"}, {"name": "星巴克(永昌泾路店)", "lng": 120.618165, "lat": 31.457346, "addr": "漕湖街道永昌泾路9号", "city": "苏州市", "district": "相城区", "rating": "4.5"}, {"name": "星巴克(吴江砂之船奥莱店)", "lng": 120.595394, "lat": 31.136628, "addr": "开平路3888号1-L133-135", "city": "苏州市", "district": "吴江区", "rating": "4.6"}, {"name": "星巴克(苏州昆山花桥金城邻里店)", "lng": 121.077616, "lat": 31.277399, "addr": "花桥镇金融大道355号万科魅力花园7号楼3室", "city": "苏州市", "district": "昆山市", "rating": "4.6"}, {"name": "星巴克(苏州吴江盛泽购物公园店)", "lng": 120.624853, "lat": 30.902842, "addr": "盛泽镇西二环路1999号财富中心", "city": "苏州市", "district": "吴江区", "rating": "4.7"}, {"name": "星巴克(淀山湖店)", "lng": 121.028099, "lat": 31.182137, "addr": "淀山湖镇中市路312号", "city": "苏州市", "district": "昆山市", "rating": "4.6"}, {"name": "星巴克(苏州常熟辛庄镇创乐橙店)", "lng": 120.674986, "lat": 31.533234, "addr": "新阳大道155号", "city": "苏州市", "district": "常熟市", "rating": "4.5"}, {"name": "星巴克臻选(昆山世茂广场店)", "lng": 121.051752, "lat": 31.38349, "addr": "开发区前进东路223号", "city": "苏州市", "district": "昆山市", "rating": "4.7"}, {"name": "星巴克(苏州常熟凤凰城店)", "lng": 120.77022, "lat": 31.667531, "addr": "新世纪大道77号1层120、121、122单元", "city": "苏州市", "district": "常熟市", "rating": "4.5"}, {"name": "星巴克中国咖啡创新产业园", "lng": 121.085711, "lat": 31.348008, "addr": "苏州市经济技术开发区星创路1号", "city": "苏州市", "district": "昆山市", "rating": "4.4"}, {"name": "星巴克(华邦店)", "lng": 120.644627, "lat": 31.128276, "addr": "中山南路988号华邦商务广场1层(上海银行旁)", "city": "苏州市", "district": "吴江区", "rating": "4.5"}, {"name": "星巴克臻选(大西门商业街店)", "lng": 120.946271, "lat": 31.386591, "addr": "马鞍山东路155号", "city": "苏州市", "district": "昆山市", "rating": "4.6"}, {"name": "星巴克(苏州昆山天虹店)", "lng": 120.952282, "lat": 31.358369, "addr": "中华园路1555号苏州昆山天虹商场第1层F101单元", "city": "苏州市", "district": "昆山市", "rating": "4.5"}, {"name": "星巴克(苏州歌林小镇H区店)", "lng": 120.61192, "lat": 31.191432, "addr": "天鹅荡路1-1号IDPARK西区3层303", "city": "苏州市", "district": "吴中区", "rating": "4.5"}, {"name": "星巴克(苏州相城蔚蓝生活广场店)", "lng": 120.653383, "lat": 31.413195, "addr": "高铁新城南天成路17号蔚蓝生活广场1层F101-1单元", "city": "苏州市", "district": "相城区", "rating": "4.6"}, {"name": "星巴克(琴湖溪里花园城北岸区店)", "lng": 120.76169, "lat": 31.637669, "addr": "琴湖路88号琴湖花园1层119商铺", "city": "苏州市", "district": "常熟市", "rating": "4.5"}, {"name": "星巴克(昆山春晖路店)", "lng": 120.981581, "lat": 31.397805, "addr": "春晖路708号望族商城9号楼1层023单元", "city": "苏州市", "district": "昆山市", "rating": "4.7"}, {"name": "星巴克臻选(苏州常熟万达广场店)", "lng": 120.732497, "lat": 31.684825, "addr": "常福街道珠海路8号万达广场1楼1001单元", "city": "苏州市", "district": "常熟市", "rating": "4.6"}, {"name": "星巴克(苏州昆山花桥绿地滨江店)", "lng": 121.077373, "lat": 31.287537, "addr": "花桥镇西环路528号26号楼一层52-1单元", "city": "苏州市", "district": "昆山市", "rating": "4.5"}, {"name": "星巴克(独墅湖邻里中心店)", "lng": 120.72474, "lat": 31.252194, "addr": "启月街198号独墅湖邻里中心1幢101室", "city": "苏州市", "district": "虎丘区", "rating": "4.6"}, {"name": "星巴克(东沙湖邻里中心店)", "lng": 120.757136, "lat": 31.333401, "addr": "苏州工业园区胜浦街道东沙湖路100号东沙湖邻里中心F1层", "city": "苏州市", "district": "吴中区", "rating": "4.7"}, {"name": "星巴克(昆山吉田国际店)", "lng": 120.961369, "lat": 31.350827, "addr": "柏庐南路999号吉田国际广场1层", "city": "苏州市", "district": "昆山市", "rating": "4.7"}, {"name": "星巴克(文缘人才公寓店)", "lng": 120.738324, "lat": 31.277559, "addr": "清宁路28号文缘人才公寓7C幢102室地上一层DP-14单元", "city": "苏州市", "district": "虎丘区", "rating": "4.5"}, {"name": "星巴克(吴江盛家厍店承接各类茶歇活动)", "lng": 120.643041, "lat": 31.152041, "addr": "中山南路2088号第一层C3-12单元", "city": "苏州市", "district": "吴江区", "rating": "4.6"}, {"name": "星巴克(兆佳巷邻里中心店)", "lng": 120.756083, "lat": 31.316593, "addr": "方洲路468号兆佳巷邻里中心2幢2-101、2-201号", "city": "苏州市", "district": "吴中区", "rating": "4.6"}, {"name": "星巴克(古里星光店)", "lng": 120.82306, "lat": 31.635548, "addr": "古里金湖路9号古里星光天地1层", "city": "苏州市", "district": "常熟市", "rating": "4.6"}, {"name": "星巴克(苏州比斯特购物村店)", "lng": 120.761922, "lat": 31.378506, "addr": "苏州工业园区唯亭街道阳澄环路969号比斯特苏州购物村F1层", "city": "苏州市", "district": "吴中区", "rating": "4.7"}, {"name": "星巴克(苏州歌林小镇L区店)", "lng": 120.615763, "lat": 31.193685, "addr": "天鹅荡路188号", "city": "苏州市", "district": "吴中区", "rating": "4.1"}, {"name": "星巴克(苏州昆山巴城鳗鲤荟店)", "lng": 120.873825, "lat": 31.449325, "addr": "古城北路与湖亭东路交叉口南140米", "city": "苏州市", "district": "昆山市", "rating": "4.5"}, {"name": "星巴克(苏州昆山和风雅颂店)", "lng": 120.906961, "lat": 31.403411, "addr": "玉山镇博士路99号人才专墅29幢地上一层A1-1F-01号铺位", "city": "苏州市", "district": "昆山市", "rating": "4.6"}, {"name": "星巴克(阳澄·繁花里店)", "lng": 120.722646, "lat": 31.48312, "addr": "湘洲路8号阳澄·繁花里F1层", "city": "苏州市", "district": "相城区", "rating": "4.4"}, {"name": "星巴克(太仓丽景商业广场店)", "lng": 121.115261, "lat": 31.459625, "addr": "娄东街道郑和中路400号1幢丽景商业广场1层110", "city": "苏州市", "district": "太仓市", "rating": "4.5"}, {"name": "星巴克(太仓万达广场店)", "lng": 121.139214, "lat": 31.459999, "addr": "城厢镇上海东路188号万达广场1层1023铺位", "city": "苏州市", "district": "太仓市", "rating": "4.6"}, {"name": "星巴克(万嘉生活广场店)", "lng": 120.865475, "lat": 31.266975, "addr": "东方大道10号万嘉生活广场1层132单元", "city": "苏州市", "district": "吴中区", "rating": "4.6"}, {"name": "星巴克(常熟虞景文华店)", "lng": 120.74018, "lat": 31.651227, "addr": "北门大街号虞景文华商业广场19幢-1区", "city": "苏州市", "district": "常熟市", "rating": "4.7"}, {"name": "星巴克(苏州张家港沙洲湖步行街)", "lng": 120.559017, "lat": 31.886031, "addr": "锦绣邻里坊1号", "city": "苏州市", "district": "张家港市", "rating": "4.7"}, {"name": "星巴克(吴江爱琴海购物公园店承接各类茶歇活动)", "lng": 120.611783, "lat": 31.135639, "addr": "夏蓉街1298号吴江远洋未来广场1号门1楼", "city": "苏州市", "district": "吴江区", "rating": "4.5"}, {"name": "星巴克(苏州吴江黎里古镇店)", "lng": 120.708195, "lat": 30.990398, "addr": "黎里镇浒泾南路106、108、110、112、116号", "city": "苏州市", "district": "吴江区", "rating": "4.6"}, {"name": "星巴克(昆山南站店)", "lng": 120.951175, "lat": 31.353171, "addr": "创业路999号昆山南站KSN1-8室", "city": "苏州市", "district": "昆山市", "rating": "2.1"}, {"name": "星巴克(苏州昆山陆家南粮路店)", "lng": 121.034132, "lat": 31.312731, "addr": "陆家镇南粮路399号", "city": "苏州市", "district": "昆山市", "rating": "4.7"}, {"name": "星巴克(常汇生活广场店)", "lng": 120.755718, "lat": 31.685537, "addr": "海虞北路98号常汇生活广场109-2", "city": "苏州市", "district": "常熟市", "rating": "4.6"}, {"name": "星巴克(昆山文化艺术中心店)", "lng": 120.907512, "lat": 31.38301, "addr": "前进西路1850号文化艺术中心1号景观建筑", "city": "苏州市", "district": "昆山市", "rating": "4.7"}, {"name": "星巴克(周庄双桥店)", "lng": 120.850257, "lat": 31.113592, "addr": "周庄镇北市街34号(张厅斜对面)", "city": "苏州市", "district": "昆山市", "rating": "4.6"}, {"name": "星巴克臻选(招商花园城店)", "lng": 120.957784, "lat": 31.404626, "addr": "萧林中路666号九方城一楼1-025室", "city": "苏州市", "district": "昆山市", "rating": "4.6"}, {"name": "星巴克(昆山现代广场店)", "lng": 120.971968, "lat": 31.348815, "addr": "伟业路18号现代广场A座109-111单元", "city": "苏州市", "district": "昆山市", "rating": "4.6"}, {"name": "星巴克(苏州昆山经开万达店)", "lng": 120.974535, "lat": 31.3544, "addr": "衡山路58号万达广场一层1023", "city": "苏州市", "district": "昆山市", "rating": "4.6"}, {"name": "星巴克(裕坤国贸广场店)", "lng": 120.7553, "lat": 31.665281, "addr": "珠江路176号(国贸广场D栋)1层101单元", "city": "苏州市", "district": "常熟市", "rating": "4.4"}, {"name": "星巴克(河西路店)", "lng": 120.546384, "lat": 31.860527, "addr": "河西路88号曼巴特购物广场F1层", "city": "苏州市", "district": "张家港市", "rating": "4.6"}, {"name": "星巴克咖啡(昆山金鹰店)", "lng": 120.973411, "lat": 31.376318, "addr": "珠江中路199号昆山金鹰国际购物中心一层1-01铺位", "city": "苏州市", "district": "昆山市", "rating": "4.5"}, {"name": "星巴克(苏州常熟创想新天地店)", "lng": 120.77371, "lat": 31.664765, "addr": "琴川街道闽江东路11号常熟世贸世纪中心6幢105室", "city": "苏州市", "district": "常熟市", "rating": "4.5"}, {"name": "星巴克臻选(常熟西蒙印象城店)", "lng": 120.758225, "lat": 31.649363, "addr": "虞山街道海虞南路88号常熟格瑞印象城购物中心1040室", "city": "苏州市", "district": "常熟市", "rating": "4.6"}, {"name": "星巴克(永旺梦乐城店)", "lng": 120.778079, "lat": 31.601837, "addr": "东南大道168号永旺梦乐城1F层", "city": "苏州市", "district": "常熟市", "rating": "4.6"}, {"name": "星巴克(昆山城市公园店)", "lng": 120.981496, "lat": 31.38104, "addr": "黑龙江北路88号中央公园B1座1层", "city": "苏州市", "district": "昆山市", "rating": "4.6"}, {"name": "星巴克(海虞新天地店)", "lng": 120.800125, "lat": 31.744425, "addr": "迎宾路66号海虞新天地A座1层101-102、121-122单元", "city": "苏州市", "district": "常熟市", "rating": "4.5"}, {"name": "星巴克(太仓海运堤店)", "lng": 121.122346, "lat": 31.435742, "addr": "高新区海运堤路86-4号", "city": "苏州市", "district": "太仓市", "rating": "4.7"}, {"name": "星巴克(花桥商务城店)", "lng": 121.147225, "lat": 31.289075, "addr": "花安路171号2幢E谷国际公寓1层", "city": "苏州市", "district": "昆山市", "rating": "4.6"}, {"name": "星巴克(苏州昆山一院友谊分院店)", "lng": 120.996818, "lat": 31.37988, "addr": "开发区青阳中路5号", "city": "苏州市", "district": "昆山市", "rating": "4.4"}, {"name": "星巴克(张家港谷渎港店)", "lng": 120.546963, "lat": 31.861323, "addr": "河西路58号", "city": "苏州市", "district": "张家港市", "rating": "4.4"}, {"name": "星巴克(昆山万达广场店)", "lng": 120.992679, "lat": 31.412267, "addr": "青阳北路218号1层1001号", "city": "苏州市", "district": "昆山市", "rating": "4.7"}, {"name": "星巴克(太仓滨江广场店)", "lng": 121.208526, "lat": 31.616216, "addr": "龙江路299号苏州太仓滨江广场一幢第一层的112单元", "city": "苏州市", "district": "太仓市", "rating": "4.6"}, {"name": "星巴克(中骏世界城店)", "lng": 121.106871, "lat": 31.299785, "addr": "花桥镇俞巷路19号S2号楼1层M162号", "city": "苏州市", "district": "昆山市", "rating": "4.5"}, {"name": "星巴克苏州昆山城市广场店", "lng": 120.981496, "lat": 31.383691, "addr": "前进中路100号", "city": "苏州市", "district": "昆山市", "rating": "4.5"}, {"name": "星巴克(苏州太仓后浪街区店)", "lng": 121.165625, "lat": 31.482425, "addr": "陆渡街道万金北路88号A1栋地上一层的A113-1单元", "city": "苏州市", "district": "太仓市", "rating": "4.4"}, {"name": "星巴克(常熟昆承湖丰茂里店)", "lng": 120.779352, "lat": 31.583606, "addr": "黄浦江路289号常熟昆承湖丰茂里F1层", "city": "苏州市", "district": "常熟市", "rating": "4.5"}, {"name": "星巴克臻选(苏州张家港金茂览秀城店)", "lng": 120.56886, "lat": 31.883684, "addr": "杨舍镇振兴路北侧、职中路东侧金茂览秀城地上一层的L1015单元", "city": "苏州市", "district": "张家港市", "rating": "4.5"}, {"name": "星巴克(大运城店)", "lng": 120.534636, "lat": 31.256861, "addr": "中山东路88号大运城第一,二层F1-29,F2-26单元", "city": "苏州市", "district": "吴中区", "rating": "4.6"}, {"name": "星巴克(张家港长江路店)", "lng": 120.408766, "lat": 31.956249, "addr": "长江中路182号锦隆奥特莱斯1层", "city": "苏州市", "district": "张家港市", "rating": "4.6"}, {"name": "星巴克(苏州太仓五洋广场店)", "lng": 121.125375, "lat": 31.450927, "addr": "城厢镇上海东路77号五洋广场2幢101室", "city": "苏州市", "district": "太仓市", "rating": "4.6"}, {"name": "星巴克(春晓·邻聚里店)", "lng": 120.865864, "lat": 31.370456, "addr": "巴城镇正仪林场路88号阳澄春晓苑12号楼1F-02苏州昆山正仪阳澄春晓店", "city": "苏州市", "district": "昆山市", "rating": "4.5"}, {"name": "星巴克(苏州御窑路店)", "lng": 120.610442, "lat": 31.376891, "addr": "御窑路66号1001室,1002室,1003室,1005室,1006室", "city": "苏州市", "district": "相城区", "rating": "4.6"}, {"name": "星巴克(乐橙广场店)", "lng": 120.555657, "lat": 31.9558, "addr": "大新镇海坝93号1号楼地上一层的1-110以及1-111单元", "city": "苏州市", "district": "张家港市", "rating": "4.4"}, {"name": "星巴克(苏州汇邻广场店)", "lng": 120.637461, "lat": 31.281374, "addr": "南环东路758号南环汇邻4A-F107-3,4A-F107-1室", "city": "苏州市", "district": "姑苏区", "rating": "4.7"}, {"name": "星巴克(木渎御景大厦店)", "lng": 120.506784, "lat": 31.25624, "addr": "木渎镇中山西路58号御景大厦1F09,2F19", "city": "苏州市", "district": "吴中区", "rating": "4.6"}, {"name": "星巴克(昆山吾悦广场店)", "lng": 120.9666, "lat": 31.33239, "addr": "长江南路99号吾悦广场(昆山店)F1层(1号门附近)", "city": "苏州市", "district": "昆山市", "rating": "4.6"}, {"name": "星巴克(碧乐时光店)", "lng": 120.954248, "lat": 31.382294, "addr": "前进西路330号梦多多小镇一楼", "city": "苏州市", "district": "昆山市", "rating": "4.4"}, {"name": "星巴克(苏州常熟尚湖印象里店)", "lng": 120.701232, "lat": 31.62359, "addr": "虞山尚湖旅游度假区常熟印象里购物中心翡翠路33号", "city": "苏州市", "district": "常熟市", "rating": "4.5"}, {"name": "星巴克(西城后街商业广场店)", "lng": 120.920676, "lat": 31.381844, "addr": "玉山镇虹祺路201号西城后街商业广场D2栋2楼", "city": "苏州市", "district": "昆山市", "rating": "4.7"}, {"name": "星巴克(苏州常熟琴湖溪里店一期)", "lng": 120.757346, "lat": 31.635517, "addr": "琴湖路58号琴湖溪里1层1068-1069单元", "city": "苏州市", "district": "常熟市", "rating": "4.6"}, {"name": "星巴克(常熟捞品城店)", "lng": 120.74654, "lat": 31.629671, "addr": "白雪路7号捞品城1楼1001单元星巴克", "city": "苏州市", "district": "常熟市", "rating": "4.6"}, {"name": "星巴克(苏州张家港暨阳湖商业街店)", "lng": 120.527264, "lat": 31.842609, "addr": "暨阳湖商业街2号101单元", "city": "苏州市", "district": "张家港市", "rating": "4.5"}, {"name": "星巴克(震泽新乐城店)", "lng": 120.515311, "lat": 30.903191, "addr": "震泽镇塔影路36号震泽新乐城1层103单元", "city": "苏州市", "district": "吴江区", "rating": "4.7"}, {"name": "星巴克(盛泽凤凰荟购物中心店)", "lng": 120.610205, "lat": 30.898627, "addr": "武威路588号盛泽凤凰荟购物中心一层1-208单元", "city": "苏州市", "district": "吴江区", "rating": "4.5"}, {"name": "星巴克苏州吴江盛泽天虹广场店", "lng": 120.641052, "lat": 30.902917, "addr": "盛泽镇舜湖西路775号6号楼地上一层的F125单元", "city": "苏州市", "district": "吴江区", "rating": "4.5"}, {"name": "星巴克(苏州常熟高铁站)", "lng": 120.780086, "lat": 31.697573, "addr": "琴川大道100号", "city": "苏州市", "district": "常熟市", "rating": "4.3"}, {"name": "星巴克(苏州昆山汇金财富广场店)", "lng": 120.892, "lat": 31.398569, "addr": "登云路258号汇金财富广场1号楼1901室", "city": "苏州市", "district": "昆山市", "rating": "4.5"}, {"name": "星巴克苏州昆山万达广场店", "lng": 120.994475, "lat": 31.403175, "addr": "青阳北路133号昆山商厦周市店F1层", "city": "苏州市", "district": "昆山市", "rating": "4.4"}, {"name": "星巴克(五月花广场店)", "lng": 120.637966, "lat": 31.960479, "addr": "锦丰镇锦店路99号M141-M143单元", "city": "苏州市", "district": "张家港市", "rating": "4.6"}, {"name": "星巴克(张家港站店)", "lng": 120.673801, "lat": 31.81776, "addr": "张家港站地上二层ZJG-2F-03铺位", "city": "苏州市", "district": "张家港市", "rating": "4.4"}, {"name": "星巴克(苏州张家港峯汇中心店)", "lng": 120.554329, "lat": 31.836512, "addr": "杨舍镇南湖路西侧勤星路北侧峯汇中心地上一层1-1铺位", "city": "苏州市", "district": "张家港市", "rating": "4.5"}, {"name": "星巴克(昆山鑫欣服务公寓店)", "lng": 120.927953, "lat": 31.405456, "addr": "萧林中路2022号配套用房A楼一层A1-03、A1-04", "city": "苏州市", "district": "昆山市", "rating": "4.5"}, {"name": "星巴克(昆山新朝阳生活荟店)", "lng": 120.959225, "lat": 31.373525, "addr": "朝阳西路与游方弄交叉口西南80米", "city": "苏州市", "district": "昆山市", "rating": "4.4"}, {"name": "星巴克昆山宾馆店", "lng": 120.957581, "lat": 31.381885, "addr": "人民路99号昆山宾馆二号楼1F", "city": "苏州市", "district": "昆山市", "rating": "4.6"}, {"name": "星巴克(汾湖嘉乐城店)", "lng": 120.852944, "lat": 31.034048, "addr": "汾湖镇城司路街809号一层的101单元", "city": "苏州市", "district": "吴江区", "rating": "4.7"}, {"name": "星巴克(东南邻里中心店)", "lng": 120.7875, "lat": 31.599022, "addr": "东南大道101号东南生活101单元", "city": "苏州市", "district": "常熟市", "rating": "4.7"}, {"name": "星巴克(苏州昆山金鹰尚美酒店店)", "lng": 120.972571, "lat": 31.375276, "addr": "珠江中路199号", "city": "苏州市", "district": "昆山市", "rating": "4.6"}, {"name": "星巴克(常熟八佰伴店)", "lng": 120.757049, "lat": 31.643383, "addr": "琴川街道方塔东街9号楼1-1", "city": "苏州市", "district": "常熟市", "rating": "4.5"}, {"name": "星巴克(中楠都汇广场店)", "lng": 120.97928, "lat": 31.40286, "addr": "周市镇萧林东路5018号中楠都汇广场2号楼1层7、17、57号铺位", "city": "苏州市", "district": "昆山市", "rating": "4.7"}, {"name": "星巴克咖啡", "lng": 121.115975, "lat": 31.491625, "addr": "北京东路与娄江北路交叉口西220米", "city": "苏州市", "district": "太仓市", "rating": "4.2"}, {"name": "星巴克(苏州吴江盛泽金银岛店)", "lng": 120.659605, "lat": 30.905881, "addr": "盛泽镇舜新中路西侧金银岛商业广场101室星巴克", "city": "苏州市", "district": "吴江区", "rating": "4.5"}, {"name": "星巴克(常熟星光天地店祝您用餐愉快)", "lng": 120.776266, "lat": 31.666824, "addr": "闽江东路9号星光天地购物中心1楼06单元", "city": "苏州市", "district": "常熟市", "rating": "4.7"}, {"name": "星巴克(太仓点金商业广场店宠物友好)", "lng": 121.128759, "lat": 31.422268, "addr": "南郊书院路101号3号楼地上1层155、156、157单元", "city": "苏州市", "district": "太仓市", "rating": "4.5"}, {"name": "星巴克(昆山大渔商业广场店)", "lng": 120.896073, "lat": 31.411386, "addr": "杜克大道505号大渔商业广场B01a单元", "city": "苏州市", "district": "昆山市", "rating": "4.7"}, {"name": "星巴克(太仓华发广场店)", "lng": 121.129078, "lat": 31.433105, "addr": "城厢镇南郊太平新路8号1层122单元", "city": "苏州市", "district": "太仓市", "rating": "4.5"}, {"name": "星巴克(G15高速沙溪服务区南)", "lng": 121.03929, "lat": 31.607205, "addr": "沿江高速公路沙溪服务区北区综合楼地上一层1号商铺", "city": "苏州市", "district": "太仓市", "rating": "4.0"}, {"name": "星巴克(苏州张家港天霸大厦店)", "lng": 120.516143, "lat": 31.867006, "addr": "杨舍镇沙洲西路115号(天霸商务馆)101地上一层101单元", "city": "苏州市", "district": "张家港市", "rating": "4.5"}, {"name": "星巴克(大成广场店)", "lng": 120.534566, "lat": 31.858882, "addr": "杨舍镇南环路355号(大成广场)A幢地上一层S105室部分区域(自编号为地上一层01单元)铺位", "city": "苏州市", "district": "张家港市", "rating": "4.5"}, {"name": "星巴克(杨舍老街店)", "lng": 120.549196, "lat": 31.865835, "addr": "杨舍老街10单元203、205-207、219-220号", "city": "苏州市", "district": "张家港市", "rating": "4.7"}, {"name": "星巴克(滨江邻里中心店)", "lng": 120.924263, "lat": 31.737362, "addr": "江南大道95号101商铺", "city": "苏州市", "district": "常熟市", "rating": "4.5"}, {"name": "星巴克(苏州望湖大厦店)", "lng": 120.718491, "lat": 31.324206, "addr": "嘉瑞巷18号105,106单元", "city": "苏州市", "district": "吴中区", "rating": "4.7"}, {"name": "星巴克(湖东邻里中心店)", "lng": 120.7283, "lat": 31.313008, "addr": "星湖街178号1幢101,102,103室", "city": "苏州市", "district": "吴中区", "rating": "4.6"}, {"name": "星巴克(恒宇广场店)", "lng": 120.729028, "lat": 31.320247, "addr": "旺墩路135号1层114,115单元", "city": "苏州市", "district": "吴中区", "rating": "4.7"}, {"name": "星巴克咖啡(苏州太仓陆渡邻里中心店)", "lng": 121.183876, "lat": 31.470445, "addr": "陆渡街道永介路与金湾路交叉口南80米", "city": "苏州市", "district": "太仓市", "rating": "4.6"}, {"name": "星巴克(梅李大梦想城店)", "lng": 120.869908, "lat": 31.70735, "addr": "梅北路31号梅李大梦想城F1层", "city": "苏州市", "district": "常熟市", "rating": "4.5"}, {"name": "星巴克(张家港吾悦广场店)", "lng": 120.543937, "lat": 31.838463, "addr": "金港大道338号吾悦广场1层123室", "city": "苏州市", "district": "张家港市", "rating": "4.6"}, {"name": "星巴克(太仓华旭财富中心店)", "lng": 121.108459, "lat": 31.445193, "addr": "人民南路95号华旭广场A101A", "city": "苏州市", "district": "太仓市", "rating": "4.6"}, {"name": "星巴克咖啡(苏州太仓浏河镇云景路店)", "lng": 121.264857, "lat": 31.509964, "addr": "浏昆线80号", "city": "苏州市", "district": "太仓市", "rating": "4.4"}, {"name": "星巴克(苏州张家港大南水街店)", "lng": 120.588816, "lat": 31.930528, "addr": "锦丰镇大南水街B1幢M01的01单元苏州张家港大南水街店", "city": "苏州市", "district": "张家港市", "rating": "4.6"}, {"name": "星巴克(昆山超华欧尚店)", "lng": 120.941824, "lat": 31.380046, "addr": "玉山镇白马泾路46号超华城市广场F1层", "city": "苏州市", "district": "昆山市", "rating": "4.6"}, {"name": "星巴克(苏州张家港中昊檀宫店)", "lng": 120.561329, "lat": 31.851298, "addr": "杨舍镇南苑东路99号01室01单元", "city": "苏州市", "district": "张家港市", "rating": "4.6"}, {"name": "星巴克(千灯大润发店)", "lng": 121.012125, "lat": 31.263625, "addr": "尚书路8号千灯大润发1层1170号", "city": "苏州市", "district": "昆山市", "rating": "4.6"}, {"name": "星巴克苏州张家港国贸酒店店", "lng": 120.549339, "lat": 31.877293, "addr": "人民路42号2幢1楼", "city": "苏州市", "district": "张家港市", "rating": "4.7"}, {"name": "星巴克(张家港购物公园店)", "lng": 120.517108, "lat": 31.869775, "addr": "杨舍镇沙洲西路368号购物公园克拉水岸A107-108铺位", "city": "苏州市", "district": "张家港市", "rating": "4.6"}, {"name": "星巴克(昆山璀璨璟园店)", "lng": 121.006577, "lat": 31.387983, "addr": "玉山镇同丰东路1000-207号昆山璀璨璟园", "city": "苏州市", "district": "昆山市", "rating": "4.5"}, {"name": "星巴克(常熟支塘风物生活店)", "lng": 120.960493, "lat": 31.607831, "addr": "支塘镇淦昌路58号B106单元", "city": "苏州市", "district": "常熟市", "rating": "4.5"}, {"name": "星巴克(苏州常熟江南美好荟店全职招募中)", "lng": 120.785258, "lat": 31.648563, "addr": "冬青路88号江南美好荟1层113、114单元", "city": "苏州市", "district": "常熟市", "rating": "4.6"}, {"name": "星巴克(苏州张家港中骏世界城店)", "lng": 120.426088, "lat": 31.936111, "addr": "中港南路99号15号楼1层M101A单元", "city": "苏州市", "district": "张家港市", "rating": "4.5"}, {"name": "星巴克(塘桥大润发店)", "lng": 120.629075, "lat": 31.817775, "addr": "塘桥镇南京路828号地上一层的1003单元铺位", "city": "苏州市", "district": "张家港市", "rating": "4.5"}, {"name": "星巴克(沙溪服务区南区店)(暂停营业)", "lng": 121.036795, "lat": 31.605293, "addr": "沿江高速公路沙溪服务区南区综合楼地上一层1号商铺", "city": "苏州市", "district": "太仓市", "rating": "3.4"}, {"name": "星巴克(黄埭中翔生活广场店)", "lng": 120.561015, "lat": 31.420254, "addr": "黄埭镇方桥路28号苏州黄埭中翔生活广场1层方046,1103单元", "city": "苏州市", "district": "相城区", "rating": "4.7"}, {"name": "星巴克苏州昆山钜潮荟店", "lng": 121.061623, "lat": 31.369291, "addr": "经济技术开发区景王东路1111号钜潮荟商业广场1楼c01", "city": "苏州市", "district": "昆山市", "rating": "4.5"}, {"name": "星巴克(苏州昆山巴黎春天店)", "lng": 120.964775, "lat": 31.378358, "addr": "震川西路18号巴黎春天百货F1层21,23单元", "city": "苏州市", "district": "昆山市", "rating": "4.5"}, {"name": "星巴克(苏州常熟方塔街店)", "lng": 120.747471, "lat": 31.644792, "addr": "塔弄街33号9栋3,4单元", "city": "苏州市", "district": "常熟市", "rating": "4.7"}, {"name": "星巴克苏州昆山张浦海尚广场", "lng": 120.935475, "lat": 31.282993, "addr": "张浦镇新吴街888号海尚商务广场店零售区第一层5号,7号单元", "city": "苏州市", "district": "昆山市", "rating": "4.7"}, {"name": "星巴克(游站店)", "lng": 121.126216, "lat": 31.287398, "addr": "花桥镇绿地大道258号游站1号楼1,2单元", "city": "苏州市", "district": "昆山市", "rating": "4.6"}, {"name": "星巴克(江南印象店)", "lng": 120.932794, "lat": 31.742747, "addr": "滨江新城金港路2号D幢117A,118A,119A,117B", "city": "苏州市", "district": "常熟市", "rating": "4.7"}, {"name": "星巴克(苏州太仓沙溪白云中路店)", "lng": 121.065417, "lat": 31.567012, "addr": "沙溪镇白云中路170号一层101,102及二层201铺位", "city": "苏州市", "district": "太仓市", "rating": "4.6"}, {"name": "STARBUCKS+COFFEE", "lng": 120.741225, "lat": 31.315075, "addr": "华润万家购物中心(园区店)", "city": "苏州市", "district": "吴中区", "rating": "3.9"}, {"name": "星巴克臻选(苏州星海店)", "lng": 120.668206, "lat": 31.315626, "addr": "工业园区苏州大道西158号凤凰广场1层", "city": "苏州市", "district": "吴中区", "rating": "4.6"}, {"name": "星巴克臻选苏州狮山龙湖天街店", "lng": 120.550316, "lat": 31.326257, "addr": "塔园路181号一层SZSSTJ-A-1F-23号单元", "city": "苏州市", "district": "虎丘区", "rating": "3.5"}, {"name": "星巴克沿街取餐点(苏州绿宝广场店)", "lng": 120.626323, "lat": 31.30896, "addr": "长江路421号", "city": "苏州市", "district": "姑苏区", "rating": "3.9"}, {"name": "星巴克(创新产业园店)", "lng": 121.084743, "lat": 31.349904, "addr": "星创路与洪湖路交叉口东南60米", "city": "苏州市", "district": "昆山市", "rating": "4.0"}, {"name": "星巴克咖啡(苏州歌林小镇H区店)", "lng": 120.615686, "lat": 31.193666, "addr": "天鹅荡路与芙蕖街交叉口西北120米", "city": "苏州市", "district": "吴中区", "rating": "3.8"}, {"name": "星巴克沿街取餐点(昆山三角塔店)", "lng": 120.95787, "lat": 31.37324, "addr": "人民南路96-2号(公交车站台前)", "city": "苏州市", "district": "昆山市", "rating": "3.4"}, {"name": "星巴克沿街取餐点(苏州昆山金鹰尚美酒店店)", "lng": 120.972639, "lat": 31.375264, "addr": "珠江中路191号", "city": "苏州市", "district": "昆山市", "rating": "3.3"}, {"name": "星巴克(成都象南里店)", "lng": 104.050059, "lat": 30.586019, "addr": "高新区万象南路669号象南里", "city": "成都市", "district": "武侯区", "rating": "4.7"}, {"name": "星巴克(天府水街店)", "lng": 104.049561, "lat": 30.558295, "addr": "天府一街699号铁像寺水街一期2区7栋2-5-2及8栋2-5-5单元", "city": "成都市", "district": "武侯区", "rating": "4.7"}, {"name": "星巴克(成都金融城店)", "lng": 104.066794, "lat": 30.580773, "addr": "天府大道北段996号8号楼天府国际金融中心2层", "city": "成都市", "district": "武侯区", "rating": "4.5"}, {"name": "星巴克臻选成都锦城万达广场店", "lng": 104.060878, "lat": 30.575857, "addr": "锦城大道666号奥克斯广场4栋一层附13-2号", "city": "成都市", "district": "武侯区", "rating": "4.6"}, {"name": "星巴克(成都南站店)", "lng": 104.068175, "lat": 30.605725, "addr": "天仁北二街300号(火车南站地铁站D口步行90米)", "city": "成都市", "district": "武侯区", "rating": "4.4"}, {"name": "星巴克(成都SKP店)", "lng": 104.070175, "lat": 30.571025, "addr": "天府大道北段2001成都SKP北馆2层D2104之1号星巴克专柜", "city": "成都市", "district": "武侯区", "rating": "4.6"}, {"name": "星巴克(成都乐家广场店)", "lng": 104.057628, "lat": 30.555522, "addr": "益州大道中段699号1栋附101号", "city": "成都市", "district": "武侯区", "rating": "4.5"}, {"name": "星巴克(环球中心店一店)", "lng": 104.064724, "lat": 30.570345, "addr": "天府大道1700号新世纪环球中心购物中心1FB20", "city": "成都市", "district": "武侯区", "rating": "4.5"}, {"name": "星巴克(天府新谷店)", "lng": 104.055166, "lat": 30.586657, "addr": "府城大道西段399号天府新谷6号楼1F", "city": "成都市", "district": "武侯区", "rating": "4.6"}, {"name": "星巴克(苏宁广场店)", "lng": 104.066579, "lat": 30.601757, "addr": "高新区南部园区天府大道北段8号苏宁广场1层126单元", "city": "成都市", "district": "武侯区", "rating": "4.5"}, {"name": "星巴克(领地环球金融中心店)", "lng": 104.063405, "lat": 30.55048, "addr": "吉泰路750号领地环球金融中心1层110-3单元", "city": "成都市", "district": "武侯区", "rating": "4.5"}, {"name": "星巴克(太古里旗舰店)", "lng": 104.083095, "lat": 30.65262, "addr": "中纱帽街8号成都太古里一期商业楼宗地二上12栋商业楼第一层1215号", "city": "成都市", "district": "锦江区", "rating": "4.6"}, {"name": "星巴克(OCG国际中心店)", "lng": 104.064218, "lat": 30.542888, "addr": "天府四街196号OCG国际中心A座地上一层101单元", "city": "成都市", "district": "武侯区", "rating": "4.5"}, {"name": "星巴克臻选(成都世豪广场店)", "lng": 104.045521, "lat": 30.549467, "addr": "剑南大道998号世豪广场1层C110号", "city": "成都市", "district": "武侯区", "rating": "4.6"}, {"name": "星巴克(成都中海环宇荟店)", "lng": 104.056103, "lat": 30.581669, "addr": "交子大道233号", "city": "成都市", "district": "武侯区", "rating": "4.6"}, {"name": "星巴克咖啡(成都银泰中心7F店)", "lng": 104.070022, "lat": 30.584978, "addr": "天府大道北段99号", "city": "成都市", "district": "武侯区", "rating": "4.6"}, {"name": "星巴克(世纪城新会展店)", "lng": 104.074875, "lat": 30.559275, "addr": "天府大道中段1号世纪城新会展", "city": "成都市", "district": "武侯区", "rating": "4.6"}, {"name": "星巴克(高新创合中心店)", "lng": 104.062259, "lat": 30.557857, "addr": "高新区吉瑞二路188号2栋附128、129、130号", "city": "成都市", "district": "武侯区", "rating": "4.6"}, {"name": "星巴克(汇锦广场店)", "lng": 104.052569, "lat": 30.557689, "addr": "盛安街133号汇锦城A座1层", "city": "成都市", "district": "武侯区", "rating": "4.5"}, {"name": "星巴克臻选(成都招商花园城店)", "lng": 104.065455, "lat": 30.589258, "addr": "府城大道中段88号中航城市广场一层L123和L125单元", "city": "成都市", "district": "武侯区", "rating": "4.6"}, {"name": "星巴克咖啡(成都曙光国际店)", "lng": 104.06475, "lat": 30.593577, "addr": "天晖中街56号曙光国际(高新地铁站C口步行170米)", "city": "成都市", "district": "武侯区", "rating": "4.6"}, {"name": "星巴克(成都市博瑞创意成都店)", "lng": 104.08518, "lat": 30.587789, "addr": "三色路38号", "city": "成都市", "district": "锦江区", "rating": "4.6"}, {"name": "星巴克(新街里店)", "lng": 104.054758, "lat": 30.593896, "addr": "成汉中路123号新街里", "city": "成都市", "district": "武侯区", "rating": "4.7"}, {"name": "星巴克(成都总府店)", "lng": 104.07964, "lat": 30.657864, "addr": "总府路15号王府井百货1楼", "city": "成都市", "district": "锦江区", "rating": "4.6"}, {"name": "星巴克(天府金融大厦店)", "lng": 104.066628, "lat": 30.551149, "addr": "天府二街99号天府金融大厦1楼大堂", "city": "成都市", "district": "武侯区", "rating": "4.5"}, {"name": "星巴克(成都天目中心店)", "lng": 104.076104, "lat": 30.5133, "addr": "雅和北二路天目中心(广都地铁站C口步行230米)", "city": "成都市", "district": "双流区", "rating": "4.5"}, {"name": "星巴克臻选(成都凯德新南店)", "lng": 104.063121, "lat": 30.602303, "addr": "盛和一路99号凯丹广场1层1-31号", "city": "成都市", "district": "武侯区", "rating": "4.6"}, {"name": "星巴克(成都锦华万达广场店)", "lng": 104.097815, "lat": 30.621203, "addr": "东湖街道锦华路一段68号万达广场(成都锦华店)1F层", "city": "成都市", "district": "锦江区", "rating": "4.6"}, {"name": "星巴克(成都天府长岛文创园店)", "lng": 104.040079, "lat": 30.566278, "addr": "石羊场街道盛通街成都高新技术产业开发区", "city": "成都市", "district": "武侯区", "rating": "4.6"}, {"name": "星巴克臻选(成都上海花园店)", "lng": 104.048525, "lat": 30.613275, "addr": "神仙树南路37号上海花园", "city": "成都市", "district": "武侯区", "rating": "4.7"}, {"name": "星巴克(成都盈嘉大厦店)", "lng": 104.08046, "lat": 30.653534, "addr": "五津街道兴园3路2号新悦广场(春熙路地铁站C口旁)", "city": "成都市", "district": "锦江区", "rating": "4.6"}, {"name": "星巴克(港汇天地店)", "lng": 104.057979, "lat": 30.537523, "addr": "天府五街999号港汇天地第一层001单元", "city": "成都市", "district": "武侯区", "rating": "4.6"}, {"name": "星巴克(成都双流茂业时代广场店)", "lng": 103.998863, "lat": 30.572372, "addr": "西航港街道黄河中路二段和江河路交汇处成都农商银行(西港路支行)对面", "city": "成都市", "district": "双流区", "rating": "4.5"}, {"name": "星巴克(成都莱蒙都会店)", "lng": 104.033657, "lat": 30.631713, "addr": "二环路南四段51号红牌楼莱蒙都会天虹商场1楼(近置信丽都公园)", "city": "成都市", "district": "武侯区", "rating": "4.6"}, {"name": "星巴克(成都天廊店)", "lng": 104.120227, "lat": 30.628136, "addr": "二郎山路73号天廊商场1楼66号", "city": "成都市", "district": "锦江区", "rating": "4.7"}, {"name": "星巴克(优品道广场店)", "lng": 104.006875, "lat": 30.661575, "addr": "青羊大道99号附33号(东坡路地铁站C口步行250米)", "city": "成都市", "district": "青羊区", "rating": "4.7"}, {"name": "星巴克(创意山店)", "lng": 104.146356, "lat": 30.602573, "addr": "成龙路街道月季街334四川成都锦江大道368号创意山商业中心一期3号楼", "city": "成都市", "district": "锦江区", "rating": "4.5"}, {"name": "星巴克臻选(成都望江名门店)", "lng": 104.095422, "lat": 30.628952, "addr": "龙舟路53号(三官堂地铁站D口步行60米)", "city": "成都市", "district": "锦江区", "rating": "4.4"}, {"name": "星巴克(成都南熙里分店)", "lng": 104.072676, "lat": 30.592391, "addr": "高新区天府长城天久南巷388号", "city": "成都市", "district": "武侯区", "rating": "4.7"}, {"name": "星巴克臻选(成都天府广场店)", "lng": 104.064591, "lat": 30.656226, "addr": "西御街3号(天府广场地铁站出入口步行130米)", "city": "成都市", "district": "青羊区", "rating": "4.5"}, {"name": "星巴克臻选(成都环贸ICD店)", "lng": 104.11314, "lat": 30.633657, "addr": "东大路577号(东大路地铁站F口步行80米)", "city": "成都市", "district": "锦江区", "rating": "4.5"}, {"name": "星巴克咖啡(成都大悦城二店)", "lng": 104.010362, "lat": 30.626712, "addr": "大悦路518号大悦城购物中心B区3层", "city": "成都市", "district": "武侯区", "rating": "4.5"}, {"name": "星巴克(优博广场店)", "lng": 103.985429, "lat": 30.602949, "addr": "智达二路303号优博广场F1层", "city": "成都市", "district": "武侯区", "rating": "4.5"}, {"name": "星巴克臻选(成都华置广场)", "lng": 104.074282, "lat": 30.660845, "addr": "提督街99号恒大购物中心2层", "city": "成都市", "district": "青羊区", "rating": "4.6"}, {"name": "星巴克臻选(悠方购物中心店)", "lng": 104.058792, "lat": 30.5833, "addr": "交子大道300号悠方购物中心1楼", "city": "成都市", "district": "武侯区", "rating": "4.7"}, {"name": "星巴克(成都磨子桥店)", "lng": 104.075608, "lat": 30.633945, "addr": "一环路南二段1号数码科技大厦F1层", "city": "成都市", "district": "武侯区", "rating": "4.4"}, {"name": "星巴克(明宇金融广场店)", "lng": 104.090929, "lat": 30.647173, "addr": "东大街紫东楼段35号明宇金融广场地上一层", "city": "成都市", "district": "锦江区", "rating": "4.6"}, {"name": "星巴克(成都保利时光里店)", "lng": 104.064104, "lat": 30.554521, "addr": "吉瑞二路99号成都保利时光里1F层1089", "city": "成都市", "district": "武侯区", "rating": "4.6"}, {"name": "星巴克臻选(成都东方新希望天祥店)", "lng": 104.067936, "lat": 30.551844, "addr": "天府大道中段500号东方希望天祥广场B座", "city": "成都市", "district": "武侯区", "rating": "4.6"}, {"name": "星巴克(成都SM广场店)", "lng": 104.112624, "lat": 30.667528, "addr": "二环路东二段29号SM广场1层星巴克", "city": "成都市", "district": "成华区", "rating": "4.6"}, {"name": "星巴克臻选(成都城南仁和新城店)", "lng": 104.053384, "lat": 30.587606, "addr": "府城大道西段505号仁和新城购物中心1号门", "city": "成都市", "district": "武侯区", "rating": "4.6"}, {"name": "星巴克(成都时代百盛店)", "lng": 104.0807, "lat": 30.656224, "addr": "总府路2号成都春熙路百盛购物中心F1层(东2门附近)", "city": "成都市", "district": "锦江区", "rating": "4.5"}, {"name": "星巴克(成都沁园世纪广场店)", "lng": 104.086052, "lat": 30.538409, "addr": "区高新区吉龙一街55号沁园世纪广场5单元地上一层01、02、03、04、05-1号(自编号)商铺", "city": "成都市", "district": "双流区", "rating": "4.5"}, {"name": "星巴克(成都新城市广场店)", "lng": 104.056678, "lat": 30.673666, "addr": "西大街19号新城市广场1层(麦当劳楼下)", "city": "成都市", "district": "青羊区", "rating": "4.6"}, {"name": "星巴克(成都文华广场店)", "lng": 104.107413, "lat": 30.636792, "addr": "东大路16号成都文华广场零售商业区一层1111A", "city": "成都市", "district": "锦江区", "rating": "4.5"}, {"name": "星巴克(成都大悦城店)", "lng": 104.011749, "lat": 30.625866, "addr": "大悦路518号成都大悦城1F层1F-041", "city": "成都市", "district": "武侯区", "rating": "4.6"}, {"name": "星巴克(成都软件园2期店)", "lng": 104.074017, "lat": 30.54151, "addr": "世纪城南路215号巴国布衣旁边", "city": "成都市", "district": "武侯区", "rating": "4.6"}, {"name": "星巴克咖啡(成都银泰城店)", "lng": 104.059329, "lat": 30.541722, "addr": "高新区益州大道1999号第18幢银泰城购物中心1F", "city": "成都市", "district": "武侯区", "rating": "4.6"}, {"name": "星巴克(凯德天府店)", "lng": 104.070196, "lat": 30.602714, "addr": "天仁路388号凯德天府购物中心一层", "city": "成都市", "district": "武侯区", "rating": "4.6"}, {"name": "星巴克(仁恒置地广场店)", "lng": 104.066874, "lat": 30.651737, "addr": "人民南路二段1号仁恒置地广场西楼F1层", "city": "成都市", "district": "锦江区", "rating": "4.6"}, {"name": "星巴克(IFS国际金融中心)", "lng": 104.081409, "lat": 30.654235, "addr": "红星路三段1号IFS国际金融中心LG1层", "city": "成都市", "district": "锦江区", "rating": "4.0"}, {"name": "星巴克(金控中心万科店)", "lng": 104.061067, "lat": 30.543962, "addr": "高新区天府四街300号6栋A座高新万科大厦", "city": "成都市", "district": "武侯区", "rating": "4.5"}, {"name": "星巴克(成都机场三店)", "lng": 103.956059, "lat": 30.571687, "addr": "机场北二路成都双流国际机场T2航站楼安检内141号登机口对面", "city": "成都市", "district": "双流区", "rating": "4.5"}, {"name": "星巴克臻选(成都麓山国际店)", "lng": 104.092821, "lat": 30.483689, "addr": "麓山大道二段18号麓山国际", "city": "成都市", "district": "双流区", "rating": "4.7"}, {"name": "星巴克臻选(成都万象城店)", "lng": 104.114879, "lat": 30.650201, "addr": "双庆路8号万象城A馆LG1层B156", "city": "成都市", "district": "成华区", "rating": "4.6"}, {"name": "星巴克(成都机场四店)", "lng": 103.95492, "lat": 30.567984, "addr": "东升街道成都双流国际机场T2航站楼3层(近出发大厅13号门入口)", "city": "成都市", "district": "双流区", "rating": "4.6"}, {"name": "星巴克(成都龙湖武侯欢肆店)", "lng": 103.984662, "lat": 30.621068, "addr": "来凤五路56号武侯星悦荟地上一层A馆-1F-17b铺位", "city": "成都市", "district": "武侯区", "rating": "4.7"}, {"name": "星巴克(今站购物中心店)", "lng": 104.066026, "lat": 30.65723, "addr": "天府广场B1层(天府广场地铁站A口旁)", "city": "成都市", "district": "青羊区", "rating": "4.6"}, {"name": "星巴克(成都天府和悦广场店)", "lng": 104.082575, "lat": 30.488125, "addr": "麓山大道二段199号成都天府和悦广场LG层", "city": "成都市", "district": "双流区", "rating": "4.6"}, {"name": "星巴克(成都麓坊店)", "lng": 104.05838, "lat": 30.464666, "addr": "华阳街道嘉州路168号", "city": "成都市", "district": "双流区", "rating": "4.6"}, {"name": "星巴克(成都银泰中心7F店)", "lng": 104.070012, "lat": 30.585571, "addr": "高新区天府大道北段1199号银泰中心1F", "city": "成都市", "district": "武侯区", "rating": "4.5"}, {"name": "星巴克(成都里格177店)", "lng": 104.070858, "lat": 30.555541, "addr": "桂溪街道天府大道中段177-附600号", "city": "成都市", "district": "武侯区", "rating": "4.5"}, {"name": "星巴克(文殊坊店)", "lng": 104.072067, "lat": 30.67335, "addr": "金马街3号文殊坊二期零售商区的地上一层自编B8-2-7、B8-2-8、B8-2-9、B8-2-10", "city": "成都市", "district": "青羊区", "rating": "4.6"}, {"name": "星巴克(成都钻石广场店)", "lng": 104.105813, "lat": 30.670131, "addr": "建设路10号万科钻石广场一层", "city": "成都市", "district": "成华区", "rating": "4.6"}, {"name": "星巴克(龙湖滨江天街店)", "lng": 104.12373, "lat": 30.665462, "addr": "杉板桥路266号1栋1层", "city": "成都市", "district": "成华区", "rating": "4.6"}, {"name": "星巴克(成都中粮丽都悦街店)", "lng": 104.032175, "lat": 30.623175, "addr": "丽都路513号中粮香颂丽都悦街1楼", "city": "成都市", "district": "武侯区", "rating": "4.7"}, {"name": "星巴克成都建发鹭洲里店", "lng": 104.043155, "lat": 30.549025, "addr": "天府二街1033号8栋附103号、荣华南路521号、荣华南路523号和荣华南路525号", "city": "成都市", "district": "武侯区", "rating": "4.5"}, {"name": "星巴克(科华成都王府井购物中心店)", "lng": 104.075469, "lat": 30.61912, "addr": "科华中路9号成都王府井购物中心(科华店)1F层L01010(东2门附近)", "city": "成都市", "district": "武侯区", "rating": "4.5"}, {"name": "星巴克(优客城市奥莱店)", "lng": 104.099677, "lat": 30.667769, "addr": "建设路55号优客城市奥莱F1层", "city": "成都市", "district": "成华区", "rating": "4.4"}, {"name": "星巴克成都成华世茂大厦店", "lng": 104.093498, "lat": 30.670499, "addr": "猛追湾横街99号(红星桥地铁站A口步行390米)", "city": "成都市", "district": "成华区", "rating": "4.5"}, {"name": "星巴克(成都威斯顿店)", "lng": 104.067336, "lat": 30.624182, "addr": "人民南路4段19号威斯顿联邦大厦1楼", "city": "成都市", "district": "武侯区", "rating": "4.6"}, {"name": "星巴克(AI创新中心店)", "lng": 104.086906, "lat": 30.510907, "addr": "锦弦二路1820号高新区人工智能创新中心北区一层126号铺成都新川AI创新中心店", "city": "成都市", "district": "双流区", "rating": "4.5"}, {"name": "星巴克(高新欧尚店)", "lng": 104.060969, "lat": 30.602237, "addr": "站华路9号欧尚F1层", "city": "成都市", "district": "武侯区", "rating": "4.4"}, {"name": "星巴克(成都双流COCOMA店)", "lng": 104.007875, "lat": 30.570725, "addr": "西航港街道大件路白家段280号韩国城购物中心F1", "city": "成都市", "district": "双流区", "rating": "4.4"}, {"name": "星巴克(益州国际广场店)", "lng": 104.055699, "lat": 30.527441, "addr": "华府大道一段688号益州国际广场F1层", "city": "成都市", "district": "双流区", "rating": "4.6"}, {"name": "星巴克(成都市蓝润ISC店)", "lng": 104.067483, "lat": 30.526359, "addr": "华阳街道华府大道1段六号楼1层1附11-113号蓝润置地广场", "city": "成都市", "district": "双流区", "rating": "4.5"}, {"name": "星巴克(中建·天府公馆店)", "lng": 104.087083, "lat": 30.528648, "addr": "观东三街899号中建天府公馆二期", "city": "成都市", "district": "双流区", "rating": "4.6"}, {"name": "星巴克(成都丰德国际广场店)", "lng": 104.071333, "lat": 30.615558, "addr": "新希望路7号丰德万瑞中心A座1层", "city": "成都市", "district": "武侯区", "rating": "4.6"}, {"name": "星巴克(兰桂坊店)", "lng": 104.084601, "lat": 30.643588, "addr": "滨江东路兰桂坊第17栋1层", "city": "成都市", "district": "锦江区", "rating": "4.7"}, {"name": "星巴克(成都时代奥特莱斯店)", "lng": 103.94398, "lat": 30.602033, "addr": "双楠大道中段107号", "city": "成都市", "district": "双流区", "rating": "4.7"}, {"name": "星巴克臻选(成都龙湖上城天街店)", "lng": 104.072357, "lat": 30.685291, "addr": "成华西街299号龙湖上城天街A馆1F", "city": "成都市", "district": "金牛区", "rating": "4.6"}, {"name": "星巴克(成都高升桥新华文轩店)", "lng": 104.041967, "lat": 30.641787, "addr": "武侯祠大街266号高升桥新华文轩成都购书中心地上第1层", "city": "成都市", "district": "武侯区", "rating": "4.5"}, {"name": "星巴克臻选(成都市龙湖西宸天街店)", "lng": 104.033221, "lat": 30.698074, "addr": "花照壁西顺街339号", "city": "成都市", "district": "金牛区", "rating": "4.7"}, {"name": "星巴克(中粮鸿云店)", "lng": 104.114857, "lat": 30.638482, "addr": "汇源北路333号中粮鸿云悦街1楼", "city": "成都市", "district": "锦江区", "rating": "4.6"}, {"name": "星巴克(成都双流机场T1店)", "lng": 103.956301, "lat": 30.57979, "addr": "机场北二路与S6成都机场高速出口交叉口西500米", "city": "成都市", "district": "双流区", "rating": "4.2"}, {"name": "星巴克(华宇广场店)", "lng": 104.122909, "lat": 30.622132, "addr": "东二环外东大路与静康路交汇处华宇广场LG层", "city": "成都市", "district": "锦江区", "rating": "4.6"}, {"name": "星巴克(成都大魔方招商花园城店)", "lng": 104.070926, "lat": 30.574948, "addr": "天府大道北段1777号(心岛地铁站出入口步行250米)成都大魔方招商花园城L1层(A馆1号门附近)", "city": "成都市", "district": "武侯区", "rating": "4.5"}, {"name": "星巴克成都龙湖时代天街", "lng": 103.921718, "lat": 30.750805, "addr": "天润路103号", "city": "成都市", "district": "郫都区", "rating": "4.6"}, {"name": "星巴克(成都来福士店)", "lng": 104.067609, "lat": 30.631331, "addr": "人民南路四段3号来福士广场B2层B201号", "city": "成都市", "district": "武侯区", "rating": "4.5"}, {"name": "星巴克(成都东航中心店)", "lng": 103.975585, "lat": 30.565452, "addr": "西航港街道临港路一段32号5号楼东航中心一层", "city": "成都市", "district": "双流区", "rating": "4.6"}, {"name": "星巴克(AI创新中心店)", "lng": 104.086825, "lat": 30.510925, "addr": "锦弦二路与新裕路交叉口西南80米", "city": "成都市", "district": "双流区", "rating": "4.4"}, {"name": "星巴克(成都宽窄巷子店)", "lng": 104.053854, "lat": 30.663344, "addr": "宽窄巷子文化保护区窄巷子22号", "city": "成都市", "district": "青羊区", "rating": "4.6"}, {"name": "星巴克(成都优悦奥莱广场店)", "lng": 104.079005, "lat": 30.612553, "addr": "火车南站街道长荣路66号优悦奥莱广场2楼", "city": "成都市", "district": "武侯区", "rating": "4.6"}, {"name": "星巴克(中国铁建西派浣花店)", "lng": 104.024834, "lat": 30.66926, "addr": "清江东路63号西派浣花阁2号楼地上一层2-1-5、2-1-6单元", "city": "成都市", "district": "青羊区", "rating": "4.5"}, {"name": "星巴克(星巴克臻选酒坊万象城店)", "lng": 104.115786, "lat": 30.648301, "addr": "双庆路8号万象城B馆L1层B-138", "city": "成都市", "district": "成华区", "rating": "4.5"}, {"name": "星巴克(倍特店)", "lng": 104.063406, "lat": 30.670467, "addr": "青龙街51号倍特康派一层", "city": "成都市", "district": "青羊区", "rating": "4.6"}, {"name": "星巴克(成都339欢乐颂)", "lng": 104.093729, "lat": 30.661174, "addr": "双林路339号华润339欢乐颂1F", "city": "成都市", "district": "成华区", "rating": "4.6"}, {"name": "星巴克(成都市龙湖锦宸天街店)", "lng": 104.074597, "lat": 30.759247, "addr": "大丰街道大天路699号地上一层A馆-1F-44单元", "city": "成都市", "district": "新都区", "rating": "4.6"}, {"name": "星巴克成都南湖公园店", "lng": 104.046583, "lat": 30.495676, "addr": "南湖大道529-16栋1层", "city": "成都市", "district": "双流区", "rating": "4.6"}, {"name": "星巴克成都天府之家惠邻中心店", "lng": 104.052062, "lat": 30.578266, "addr": "锦尚西二路333号锦城社区综合体1楼-附001号", "city": "成都市", "district": "武侯区", "rating": "4.4"}, {"name": "星巴克臻选(成都金牛天府艺术公园店)", "lng": 104.023008, "lat": 30.711057, "addr": "北三环路一段111号天府艺术公园文博坊3号楼101号", "city": "成都市", "district": "金牛区", "rating": "4.6"}, {"name": "星巴克(成都市第一人民医院店)", "lng": 104.052475, "lat": 30.590645, "addr": "高新区万象北路18号中西医结合医院综合楼第一住院部地上一层大厅内咖啡厅商铺", "city": "成都市", "district": "武侯区", "rating": "4.3"}, {"name": "星巴克(蜀道云上城店)", "lng": 104.02946, "lat": 30.499055, "addr": "怡心街道长顺大道一段蜀道云上城购物中心112号", "city": "成都市", "district": "双流区", "rating": "4.5"}, {"name": "星巴克(金隅·珑熙汇店)", "lng": 103.997852, "lat": 30.621846, "addr": "聚龙路168号鸡毛川菜店楼下", "city": "成都市", "district": "武侯区", "rating": "4.6"}, {"name": "星巴克(成都市光华里方店)", "lng": 104.014777, "lat": 30.662651, "addr": "光华村街42号4栋1层1号自编L1-4号", "city": "成都市", "district": "青羊区", "rating": "4.4"}, {"name": "星巴克臻选(天荟·万科广场店)", "lng": 104.126367, "lat": 30.66763, "addr": "建设南支路29号万科天荟1-7区1层", "city": "成都市", "district": "成华区", "rating": "4.7"}, {"name": "星巴克臻选(成都世茂广场店)", "lng": 104.190236, "lat": 30.581896, "addr": "金枫路833号世茂广场2楼35号", "city": "成都市", "district": "龙泉驿区", "rating": "4.6"}, {"name": "星巴克(成都世代锦江)", "lng": 104.061653, "lat": 30.647702, "addr": "下南大街59号世代锦江1栋1层附7号", "city": "成都市", "district": "锦江区", "rating": "4.6"}, {"name": "星巴克(卓锦曼购中心店)", "lng": 104.136401, "lat": 30.59635, "addr": "成龙大道西段枫树街与国香街交汇处卓锦曼购购物中心1F", "city": "成都市", "district": "锦江区", "rating": "4.6"}, {"name": "星巴克(阳光新业中心店)", "lng": 104.091019, "lat": 30.642593, "addr": "一环路东五段87号成都阳光新业中心1楼", "city": "成都市", "district": "锦江区", "rating": "4.6"}, {"name": "星巴克(成都国际金融广场6F店)", "lng": 104.081823, "lat": 30.655387, "addr": "红星路国际金融广场6层", "city": "成都市", "district": "锦江区", "rating": "4.5"}, {"name": "星巴克(成都青羊万达广场店)", "lng": 103.974669, "lat": 30.675937, "addr": "日月大道一段978号万达广场购物中心1层(1号门侧)", "city": "成都市", "district": "青羊区", "rating": "4.6"}, {"name": "星巴克(成都双流万达店)", "lng": 103.927446, "lat": 30.594781, "addr": "星空路2段双流万达广场2号门地面一层1061B、1062B号铺位", "city": "成都市", "district": "双流区", "rating": "4.6"}, {"name": "星巴克(壹方里店)", "lng": 103.974749, "lat": 30.672152, "addr": "苏坡街道培风路蓝光·西环壹方里L1-019", "city": "成都市", "district": "青羊区", "rating": "4.6"}, {"name": "星巴克(Discovery王府井店)", "lng": 104.09988, "lat": 30.688783, "addr": "二环路北四段3号王府井购物中心J4-1F-P001", "city": "成都市", "district": "成华区", "rating": "4.5"}, {"name": "星巴克(明城购物中心店)", "lng": 103.916995, "lat": 30.574833, "addr": "东升街西安路一段158号明城·仁和购物中心第1层的B馆-1F-B101单元", "city": "成都市", "district": "双流区", "rating": "4.5"}, {"name": "星巴克臻选(成都双楠鹭岛店)", "lng": 104.013348, "lat": 30.645313, "addr": "龙华北路与鹭岛路路口1层", "city": "成都市", "district": "武侯区", "rating": "4.7"}, {"name": "星巴克(成都花园城店)", "lng": 104.062625, "lat": 30.440005, "addr": "天府新区双燕路西段336号花园城风情商业街地上一层18栋102号铺位阁B区", "city": "成都市", "district": "双流区", "rating": "4.7"}, {"name": "星巴克(上古天地店)", "lng": 104.165624, "lat": 30.703732, "addr": "龙潭路33号星悦广场(上古天地店)F1层1F-02", "city": "成都市", "district": "成华区", "rating": "4.6"}, {"name": "星巴克(科学城店)", "lng": 104.080416, "lat": 30.401875, "addr": "湖畔路北段317号西南方向69米兴隆湖科学城天府菁蓉A区4栋负一楼", "city": "成都市", "district": "双流区", "rating": "4.7"}, {"name": "星巴克(成都武侯吾悦店)", "lng": 103.989174, "lat": 30.625738, "addr": "武侯大道顺江段77号吾悦广场1层", "city": "成都市", "district": "武侯区", "rating": "4.6"}, {"name": "星巴克(成飞大道店)", "lng": 103.957927, "lat": 30.667944, "addr": "光华西五路55号天府匠芯F1层", "city": "成都市", "district": "青羊区", "rating": "4.5"}, {"name": "星巴克(西部智谷七组团店)", "lng": 103.97433, "lat": 30.630868, "addr": "武科西四路128号7栋1层1号附5号成都西部智谷门店", "city": "成都市", "district": "武侯区", "rating": "4.6"}, {"name": "星巴克(九里晴川店)", "lng": 104.078448, "lat": 30.509359, "addr": "宸光和悦·龙湖南门西100米", "city": "成都市", "district": "双流区", "rating": "4.4"}, {"name": "星巴克(成都银石广场店)", "lng": 104.079425, "lat": 30.653148, "addr": "红星路三段99号银石广场商场内二楼", "city": "成都市", "district": "锦江区", "rating": "4.5"}, {"name": "星巴克咖啡(成都花样年红唐广场店)", "lng": 104.065975, "lat": 30.535575, "addr": "天府大道中段1388号花样年·美年广场2期红唐商场一楼", "city": "成都市", "district": "武侯区", "rating": "4.6"}, {"name": "星巴克(成都红星生活美学中心店)", "lng": 104.069525, "lat": 30.478625, "addr": "华阳镇街道天府大道南段2608号(广福地铁站A1口旁)", "city": "成都市", "district": "双流区", "rating": "4.5"}, {"name": "星巴克(成都太古里二店)", "lng": 104.080318, "lat": 30.653581, "addr": "步行街与春熙路步行街交叉口东南80米", "city": "成都市", "district": "锦江区", "rating": "4.3"}, {"name": "星巴克(成都航天大厦店)", "lng": 104.067049, "lat": 30.65292, "addr": "新光华街7号航天科技大厦23楼02-03室", "city": "成都市", "district": "锦江区", "rating": "4.5"}, {"name": "星巴克(新光天地店)", "lng": 103.859015, "lat": 30.683233, "addr": "柳城街道光华大道三段1599号新光天地一层01C008号铺位", "city": "成都市", "district": "温江区", "rating": "4.6"}, {"name": "星巴克成都市中海右岸环宇坊店", "lng": 104.033086, "lat": 30.49263, "addr": "协和街道剑南大道南段2736号", "city": "成都市", "district": "双流区", "rating": "4.6"}, {"name": "星巴克(成都龙湖金楠天街店)", "lng": 103.996381, "lat": 30.648959, "addr": "晋吉西一街66号龙湖金楠天街商场1F", "city": "成都市", "district": "武侯区", "rating": "4.6"}, {"name": "星巴克(成都锦江大融城店)", "lng": 104.156158, "lat": 30.604639, "addr": "成龙路街道驿都大道喜树街35号锦江大融城购物中心二楼", "city": "成都市", "district": "锦江区", "rating": "4.5"}, {"name": "星巴克(双流机场T2未过安检出发大厅店)", "lng": 103.956127, "lat": 30.571988, "addr": "双流国际机场T2航站楼3层出发大厅13号门FG安检口", "city": "成都市", "district": "双流区", "rating": "4.6"}, {"name": "星巴克(成都西源集店)", "lng": 104.020368, "lat": 30.669861, "addr": "清江中路辅路与二环路西二段交叉口西100米", "city": "成都市", "district": "青羊区", "rating": "4.5"}, {"name": "星巴克(成都天府大悦城店)", "lng": 104.088591, "lat": 30.433613, "addr": "天府新区兴康三街505号天府大悦城地上1层L1-A-59/60", "city": "成都市", "district": "双流区", "rating": "4.5"}, {"name": "星巴克(成都新希望中鼎店)", "lng": 104.089975, "lat": 30.591025, "addr": "柳江街道金石路316号新希望中鼎316第一层5号楼5-1-2号单元", "city": "成都市", "district": "锦江区", "rating": "4.6"}, {"name": "星巴克(成都市KBC欧韩馆店)", "lng": 104.072408, "lat": 30.655591, "addr": "东大街111号KBC欧韩馆1层103", "city": "成都市", "district": "锦江区", "rating": "4.5"}, {"name": "星巴克(TheGate量子介店)", "lng": 104.131575, "lat": 30.687225, "addr": "二仙桥北路28号1栋(机车厂地铁站D口步行290米)", "city": "成都市", "district": "成华区", "rating": "4.6"}, {"name": "星巴克(翡翠天地店)", "lng": 104.09308, "lat": 30.613491, "addr": "中国琉璃路656号翡翠天地", "city": "成都市", "district": "锦江区", "rating": "4.6"}, {"name": "星巴克(成都桐梓林大世界店)", "lng": 104.056125, "lat": 30.616426, "addr": "新光路10号家乐福F1大世界商业广场F1层1F-1", "city": "成都市", "district": "武侯区", "rating": "4.7"}, {"name": "星巴克(华阳戛纳湾店)", "lng": 104.054924, "lat": 30.523335, "addr": "骑龙村11社戛纳印象1层1102-1104号", "city": "成都市", "district": "双流区", "rating": "4.7"}, {"name": "星巴克臻选(成都仁和春天光华店)", "lng": 104.021166, "lat": 30.663813, "addr": "二环路西二段街19号仁和春天百货1F", "city": "成都市", "district": "青羊区", "rating": "4.6"}, {"name": "星巴克(新城吾悦广场店)", "lng": 104.241374, "lat": 30.576711, "addr": "桃都大道中段888号成都新城吾悦广场零售商区1层1051-1053号单元", "city": "成都市", "district": "龙泉驿区", "rating": "4.6"}, {"name": "星巴克(成都建发鹭洲里2店)", "lng": 104.040383, "lat": 30.550277, "addr": "石羊街道世豪瑞丽建发·鹭洲里西广场一层", "city": "成都市", "district": "武侯区", "rating": "4.2"}, {"name": "星巴克(成都喜港城购物中心店)", "lng": 104.097596, "lat": 30.557419, "addr": "高新区中和中柏大道中段成都喜港城购物中心1F", "city": "成都市", "district": "双流区", "rating": "4.5"}, {"name": "星巴克成都科华王府井店", "lng": 104.075336, "lat": 30.61973, "addr": "科华中路9号王府井商城1F", "city": "成都市", "district": "武侯区", "rating": "4.4"}, {"name": "星巴克(成都天府环宇坊店)", "lng": 104.036395, "lat": 30.476969, "addr": "祥鹤四街与瑞祥路交汇处中海天府环宇坊F1", "city": "成都市", "district": "双流区", "rating": "4.6"}, {"name": "星巴克(青龙广场店)", "lng": 104.109309, "lat": 30.709237, "addr": "青龙广场1层", "city": "成都市", "district": "成华区", "rating": "4.5"}, {"name": "星巴克(新津碧乐城店)", "lng": 103.818175, "lat": 30.425358, "addr": "五津镇兴园3路2号地上一层附16号", "city": "成都市", "district": "新津区", "rating": "4.5"}, {"name": "星巴克(成都锦华路BHG店)", "lng": 103.986652, "lat": 30.57169, "addr": "西航港锦华路二段166号BHG购物中心一层F1-29/30单元", "city": "成都市", "district": "双流区", "rating": "4.5"}, {"name": "星巴克臻选(成都财富又一城店)", "lng": 104.094445, "lat": 30.677736, "addr": "中国府青路二段2号财富又一城1层", "city": "成都市", "district": "成华区", "rating": "4.6"}, {"name": "星巴克(中铁艺术城店)", "lng": 104.053103, "lat": 30.684139, "addr": "马家花园路16号中铁鹭岛艺术城7号楼", "city": "成都市", "district": "金牛区", "rating": "4.6"}, {"name": "星巴克(西城天下店)", "lng": 104.01403, "lat": 30.693375, "addr": "蜀汉路347号1栋西城天下购物中心一层1-01单元", "city": "成都市", "district": "金牛区", "rating": "4.5"}, {"name": "星巴克(成都东立国际店)", "lng": 104.096417, "lat": 30.703097, "addr": "双水碾街道东立国际(购物)广场B1号楼", "city": "成都市", "district": "成华区", "rating": "4.1"}, {"name": "星巴克(铁建广场店)", "lng": 104.143252, "lat": 30.679788, "addr": "东华一路47号铁建广场一层", "city": "成都市", "district": "成华区", "rating": "4.6"}, {"name": "星巴克(成都东安天街店)", "lng": 104.249523, "lat": 30.573894, "addr": "东安街道桃都大道中段666号龙湖成都东安天街F1层", "city": "成都市", "district": "龙泉驿区", "rating": "4.4"}, {"name": "星巴克(来福士负二楼店)", "lng": 104.067507, "lat": 30.631161, "addr": "人民南路四段3号来福士广场一楼", "city": "成都市", "district": "武侯区", "rating": "4.5"}, {"name": "星巴克(成都北城天街分店)", "lng": 104.06658, "lat": 30.711621, "addr": "五块石1号北城天街B馆一层27号-1F-001号", "city": "成都市", "district": "金牛区", "rating": "4.6"}, {"name": "星巴克(新城市购物广场店)", "lng": 104.179137, "lat": 30.810281, "addr": "马超东路222号新城市广场1层", "city": "成都市", "district": "新都区", "rating": "4.5"}, {"name": "星巴克(成都锦江东韵里店)", "lng": 104.103754, "lat": 30.624157, "addr": "沙河街道汇泉南路东韵里", "city": "成都市", "district": "锦江区", "rating": "4.5"}, {"name": "星巴克(蓝润瑞宸中心店)", "lng": 104.065775, "lat": 30.637325, "addr": "人民南路三段24号蓝润瑞宸中心F1层", "city": "成都市", "district": "武侯区", "rating": "4.5"}, {"name": "星巴克(四川大学华西医院院本部店)", "lng": 104.060194, "lat": 30.641873, "addr": "电信路与公行道交叉口西180米", "city": "成都市", "district": "武侯区", "rating": "4.5"}, {"name": "星巴克(方糖funtown小区店)", "lng": 104.027289, "lat": 30.627491, "addr": "长益路与董家湾北街交叉口东40米", "city": "成都市", "district": "武侯区", "rating": "4.4"}, {"name": "星巴克(成都光环购物公园B馆店)", "lng": 104.112238, "lat": 30.635531, "addr": "东大街东大路段333号成都光环购物公园B馆L1层B-L1-07a", "city": "成都市", "district": "锦江区", "rating": "4.5"}, {"name": "星巴克(晶融汇2期店)", "lng": 104.083425, "lat": 30.650654, "addr": "合江亭街道东大街下东大街段169号2栋晶融汇购物中心1层201-19c单元", "city": "成都市", "district": "锦江区", "rating": "4.5"}, {"name": "星巴克(成都市三利爱琴海店)", "lng": 104.06903, "lat": 30.492513, "addr": "天府大道南段2034号(海昌路地铁站B口步行360米)", "city": "成都市", "district": "双流区", "rating": "4.6"}, {"name": "星巴克臻选(成都国际金融广场)", "lng": 104.080412, "lat": 30.654534, "addr": "红星路国际金融广场6层(春熙路地铁站C口步行110米)", "city": "成都市", "district": "锦江区", "rating": "4.5"}, {"name": "星巴克(成都蜀新天街店)", "lng": 103.903307, "lat": 30.790446, "addr": "望丛中路199号龙湖蜀新天街第一层1F-20a单元", "city": "成都市", "district": "郫都区", "rating": "4.6"}, {"name": "星巴克成都新津碧乐城店", "lng": 103.818375, "lat": 30.425375, "addr": "五津镇兴园3路2号地上一层附16号", "city": "成都市", "district": "新津区", "rating": "4.3"}, {"name": "星巴克(中国西部国际博览城店)", "lng": 104.08198, "lat": 30.41798, "addr": "福州路东段88号11号五区共兴展馆", "city": "成都市", "district": "双流区", "rating": "4.2"}, {"name": "星巴克(中德英伦世邦云庭店)", "lng": 104.07872, "lat": 30.519958, "addr": "雅和北四路中德世邦云庭4号楼一层159号商铺", "city": "成都市", "district": "双流区", "rating": "4.5"}, {"name": "星巴克(华侨城店)", "lng": 104.037222, "lat": 30.719964, "addr": "沙西线1号华侨城公园广场1层商业街C3101-C3102", "city": "成都市", "district": "金牛区", "rating": "4.6"}, {"name": "星巴克(青羊工业园店)", "lng": 103.960897, "lat": 30.683244, "addr": "成飞大道敬业路46号园区内", "city": "成都市", "district": "青羊区", "rating": "4.6"}, {"name": "星巴克成都市龙泉驿都汇店", "lng": 104.233775, "lat": 30.568975, "addr": "驿都大道中路900号", "city": "成都市", "district": "龙泉驿区", "rating": "4.4"}, {"name": "星巴克(蜀都万达店)", "lng": 103.905958, "lat": 30.808337, "addr": "望丛东路万达广场购物中心1F(高铁站旁)", "city": "成都市", "district": "郫都区", "rating": "4.6"}, {"name": "星巴克臻选(成都远大购物中心店)", "lng": 104.070947, "lat": 30.527787, "addr": "华阳镇街道天府大道中段329号远大购物中心1F", "city": "成都市", "district": "双流区", "rating": "4.5"}, {"name": "星巴克咖啡(成都国际城市设计中心店)", "lng": 104.042634, "lat": 30.636243, "addr": "高升桥东路8号附1号", "city": "成都市", "district": "武侯区", "rating": "4.2"}, {"name": "星巴克臻选(成都中海国际店)", "lng": 103.978674, "lat": 30.723831, "addr": "高新汇川街388号中海国际1层", "city": "成都市", "district": "金牛区", "rating": "4.6"}, {"name": "星巴克(润扬双铁广场店)", "lng": 103.97527, "lat": 30.759002, "addr": "天府路88号(犀浦地铁站B入口步行490米)", "city": "成都市", "district": "郫都区", "rating": "4.6"}, {"name": "星巴克(龙泉万达广场店)", "lng": 104.269043, "lat": 30.566961, "addr": "创业北街8号龙泉驿万达广场一层1001号商铺", "city": "成都市", "district": "龙泉驿区", "rating": "4.6"}, {"name": "星巴克(成都凯德魅力城店)", "lng": 104.153348, "lat": 30.626383, "addr": "保和街道万科路9号凯德广场魅力城01-01B-02A号", "city": "成都市", "district": "成华区", "rating": "4.7"}, {"name": "星巴克(成都泛悦城市广场店)", "lng": 104.098433, "lat": 30.704021, "addr": "青龙街道昭觉寺南路160号泛悦城市广场1F", "city": "成都市", "district": "成华区", "rating": "4.5"}, {"name": "星巴克成都东站2店", "lng": 104.140433, "lat": 30.628502, "addr": "成都东站2F候车层近2B-3B检票口后侧", "city": "成都市", "district": "成华区", "rating": "4.5"}, {"name": "星巴克(富力大厦店)", "lng": 104.070318, "lat": 30.664249, "addr": "顺城大街269号富力天汇购物广场一楼", "city": "成都市", "district": "青羊区", "rating": "4.6"}, {"name": "星巴克(成都万象城手语店)", "lng": 104.115547, "lat": 30.646357, "addr": "双庆路8号万象城C馆L1层C-J108", "city": "成都市", "district": "成华区", "rating": "4.6"}, {"name": "星巴克(成都七一广场店)", "lng": 104.171755, "lat": 30.822806, "addr": "新泰东路71号七一国际广场L1层1066", "city": "成都市", "district": "新都区", "rating": "4.6"}, {"name": "星巴克(天府招商花园城店)", "lng": 104.060275, "lat": 30.426125, "addr": "秦皇寺街33号天府招商花园城F1层", "city": "成都市", "district": "双流区", "rating": "4.4"}, {"name": "星巴克(恒泰广场店)", "lng": 103.94137, "lat": 30.772791, "addr": "红高路", "city": "成都市", "district": "郫都区", "rating": "4.5"}, {"name": "星巴克(华府金沙名城店)", "lng": 104.00548, "lat": 30.673733, "addr": "金凤路2号华府金沙名城6栋3单元地上一层6-1-5号", "city": "成都市", "district": "青羊区", "rating": "4.5"}, {"name": "星巴克(成都简阳德盛商业店)", "lng": 104.544802, "lat": 30.407855, "addr": "百伦百货", "city": "成都市", "district": "简阳市", "rating": "4.5"}, {"name": "星巴克(鹏瑞利医疗中心店)", "lng": 104.138775, "lat": 30.631225, "addr": "锦绣大道5500号鹏瑞利医疗中心A1栋1层局部", "city": "成都市", "district": "成华区", "rating": "4.7"}, {"name": "星巴克成都市华熙528店", "lng": 104.145623, "lat": 30.592274, "addr": "成龙大道与喜树街交叉口华熙528艺术村商业区B区L1-204商铺", "city": "成都市", "district": "锦江区", "rating": "4.6"}, {"name": "星巴克(华润·凌云府店)", "lng": 104.118093, "lat": 30.642793, "addr": "双成三路16号华润·凌云府附32号", "city": "成都市", "district": "成华区", "rating": "4.5"}, {"name": "星巴克(成都中海大厦店)", "lng": 104.018902, "lat": 30.652186, "addr": "龙腾东路36号1栋中海大厦1F", "city": "成都市", "district": "武侯区", "rating": "4.6"}, {"name": "星巴克(龙泉龙湖东安天街店)", "lng": 104.249545, "lat": 30.57377, "addr": "东安街道桃都大道中段龙湖成都东安天街(建设中)", "city": "成都市", "district": "龙泉驿区", "rating": "4.3"}, {"name": "星巴克(龙湖三千集店)", "lng": 104.109352, "lat": 30.67501, "addr": "二环路东二段1号1层21号(踏水桥地铁站B口旁)", "city": "成都市", "district": "成华区", "rating": "4.6"}, {"name": "星巴克成都科学城店", "lng": 104.07497, "lat": 30.394647, "addr": "天府新区兴隆湖科学城天府菁蓉A区4栋负一楼", "city": "成都市", "district": "双流区", "rating": "4.6"}, {"name": "星巴克(成都龙泉杉杉奥莱店)", "lng": 104.219565, "lat": 30.571859, "addr": "驿都大道西路4388号成都杉杉奥特莱斯广场F1层", "city": "成都市", "district": "龙泉驿区", "rating": "4.4"}, {"name": "星巴克咖啡", "lng": 104.002354, "lat": 30.680757, "addr": "金阳路与蜀风路交叉口东南60米", "city": "成都市", "district": "青羊区", "rating": "4.6"}, {"name": "星巴克(海滨城购物中心店)", "lng": 103.909325, "lat": 30.603025, "addr": "蛟龙大道21号海滨城购物中心1F层", "city": "成都市", "district": "双流区", "rating": "4.4"}, {"name": "星巴克(城中汇购物中心店)", "lng": 104.09052, "lat": 30.691917, "addr": "驷马桥街道二环路北四段瑞安·城中汇商住2栋", "city": "成都市", "district": "金牛区", "rating": "4.3"}, {"name": "星巴克成都国际城市设计中心店", "lng": 104.042675, "lat": 30.636225, "addr": "国际城市设计产业中心4号楼", "city": "成都市", "district": "武侯区", "rating": "4.5"}, {"name": "星巴克(成都环球中心II店)", "lng": 104.064854, "lat": 30.569118, "addr": "天府大道北段1700号环球中心2F层(东2门进入直行40m,扶梯上到2F可见)", "city": "成都市", "district": "武侯区", "rating": "4.6"}, {"name": "星巴克(双楠伊藤洋华堂店)", "lng": 104.021404, "lat": 30.645839, "addr": "逸都路6号伊藤洋华堂商场一楼", "city": "成都市", "district": "武侯区", "rating": "4.5"}, {"name": "星巴克成都科学城2店", "lng": 104.07469, "lat": 30.395346, "addr": "湖畔路西段111号", "city": "成都市", "district": "双流区", "rating": "4.4"}, {"name": "星巴克(成都成华招商花园城店)", "lng": 104.133679, "lat": 30.671298, "addr": "建设路街道招商花园城购物中心", "city": "成都市", "district": "成华区", "rating": "4.5"}, {"name": "星巴克(东郊记忆店)", "lng": 104.122745, "lat": 30.668447, "addr": "东郊记忆·中央大道3-1-Z4-1号", "city": "成都市", "district": "成华区", "rating": "4.6"}, {"name": "星巴克(西村店)", "lng": 104.003825, "lat": 30.670525, "addr": "贝森北路1号西村大院一层", "city": "成都市", "district": "青羊区", "rating": "4.7"}, {"name": "星巴克(成都城南优品道店)", "lng": 103.914359, "lat": 30.595897, "addr": "白衣上街177号城南优品道广场F1层", "city": "成都市", "district": "双流区", "rating": "4.6"}, {"name": "星巴克(沙湾印象汇店)", "lng": 104.045768, "lat": 30.693296, "addr": "二环路北一段10号印象汇(沙湾店)F1层01-34/35", "city": "成都市", "district": "金牛区", "rating": "4.6"}, {"name": "星巴克西单店", "lng": 103.999709, "lat": 30.674305, "addr": "苏坡东路12-7号", "city": "成都市", "district": "青羊区", "rating": "4.6"}, {"name": "星巴克(金牛凯德分店)", "lng": 104.044224, "lat": 30.702987, "addr": "交大路183号金牛凯德2期1层", "city": "成都市", "district": "金牛区", "rating": "4.6"}, {"name": "星巴克(成都花沐里店)", "lng": 103.889643, "lat": 30.688024, "addr": "江安路与鸡鸣路交叉口东120米", "city": "成都市", "district": "温江区", "rating": "4.6"},